Crazyflie name,QTM packet timestamp (s),x (m),y (m),z (m),yaw (째),vx (m/s),vy (m/s),vz (m/s),vx_c (m/s),vy_c (m/s),vz_c (m/s),roll_c (째),pitch_c (째),yaw_rate_c (째/s),thrust_c (PWM)
cf1,7989.62,0.5001413879394532,0.4914512634277344,0.01381787109375,0.06343547999858856,-0.0005233764648279293,-0.00018768310546403156,-0.0010165214538352869,None,None,None,None,None,None,None
cf2,7989.62,0.5007329406738281,-0.5013529052734376,0.006725305557250977,-0.07608317583799362,0.00022583007812166934,0.000294494628898756,0.0002573251724187349,None,None,None,None,None,None,None
cf3,7989.62,-0.5051070861816407,0.49759994506835936,0.010989079475402832,0.032731711864471436,-0.0005401611328052835,-0.000524902343740008,0.00023784637450649724,None,None,None,None,None,None,None
cf1,7989.639999999999,0.5001460571289063,0.4914458923339844,0.013821847915649414,0.06401273608207703,0.0002334594726593725,-0.00026855468750555114,0.00019884109497540856,None,None,None,None,None,None,None
cf2,7989.639999999999,0.5007203674316406,-0.5013579711914062,0.0067367396354675296,-0.07673225551843643,-0.0006286621093902656,-0.0002532958984395817,0.0005717039108411405,None,None,None,None,None,None,None
cf3,7989.639999999999,-0.5051094360351562,0.4975966796875,0.01098545265197754,0.032221537083387375,-0.00011749267578020917,-0.00016326904297256638,-0.00018134117126893104,None,None,None,None,None,None,None
cf1,7989.66,0.5001316528320313,0.4914451293945313,0.01383285903930664,0.06401273608207703,-0.0007202148437311263,-3.814697265486222e-05,0.0005505561828493238,None,None,None,None,None,None,None
cf2,7989.66,0.5007386169433594,-0.5013496704101562,0.006741955280303955,-0.07673225551843643,0.0009124755859202915,0.00041503906249222843,0.00026078224181559916,None,None,None,None,None,None,None
cf3,7989.66,-0.505104736328125,0.49759286499023436,0.010969891548156738,0.032221537083387375,0.00023498535155528356,-0.00019073486327708666,-0.0007780551910230995,None,None,None,None,None,None,None
cf1,7989.679999999999,0.5001343383789063,0.49144442749023437,0.013838361740112305,0.07464436441659927,0.00013427734375277557,-3.509521484617861e-05,0.00027513504028973,None,None,None,None,None,None,None
cf2,7989.679999999999,0.5007361145019531,-0.5013434448242188,0.006767510414123535,-0.08271124213933945,-0.000125122070318745,0.0003112792968791633,0.0012777566910091936,None,None,None,None,None,None,None
cf3,7989.679999999999,-0.5051122131347656,0.49759988403320315,0.011001262664794922,0.0334160178899765,-0.00037384033203853584,0.00035095214844790834,0.001568555831946292,None,None,None,None,None,None,None
cf1,7989.7,0.5001319885253906,0.49145489501953127,0.013858989715576172,0.07464436441659927,-0.00011749267578041734,0.0005233764648334804,0.001031398773170808,None,None,None,None,None,None,None
cf2,7989.7,0.5007519226074219,-0.5013230285644531,0.0068036079406738285,-0.08271124213933945,0.0007904052734202915,0.0010208129882615436,0.0018048763274752788,None,None,None,None,None,None,None
cf3,7989.7,-0.5051266479492188,0.49760162353515625,0.011051584243774414,0.0334160178899765,-0.0007217407226432048,8.697509765264178e-05,0.002516078948919671,None,None,None,None,None,None,None
cf1,7989.719999999999,0.5000787658691407,0.4914649658203125,0.013925275802612306,0.07464436441659927,-0.0026611328125610624,0.0005035400390742961,0.003314304351885072,None,None,None,None,None,None,None
cf2,7989.719999999999,0.5007788391113281,-0.5012788391113281,0.006949577331542969,-0.08271124213933945,0.0013458251953465006,0.0022094726563027358,0.007298469543629593,None,None,None,None,None,None,None
cf3,7989.719999999999,-0.505161376953125,0.49766302490234376,0.011150417327880859,0.0334160178899765,-0.0017364501953520517,0.003070068359448552,0.004941654205439121,None,None,None,None,None,None,None
cf1,7989.74,0.5000185241699219,0.4914852600097656,0.014034129142761231,0.07660768926143646,-0.0030120849608747725,0.0010147094726326578,0.005442667007327469,None,None,None,None,None,None,None
cf2,7989.74,0.5008681030273437,-0.5011840209960937,0.007203768730163575,0.015004941262304783,0.004463195800682718,0.0047409057616152215,0.012709569930752883,None,None,None,None,None,None,None
cf3,7989.74,-0.5051816711425782,0.49775683593750003,0.011388528823852538,0.03702264279127121,-0.0010147094726354333,0.004690551757710914,0.011905574798324105,None,None,None,None,None,None,None
cf1,7989.759999999999,0.4999677429199219,0.4915158386230469,0.01419366455078125,0.07660768926143646,-0.002539062500058287,0.0015289306640992762,0.007976770401189595,None,None,None,None,None,None,None
cf2,7989.759999999999,0.5008624877929687,-0.5011659851074219,0.0078801851272583,0.015004941262304783,-0.00028076171875832665,0.0009017944336100564,0.03382081985553606,None,None,None,None,None,None,None
cf3,7989.759999999999,-0.5052525634765626,0.49794351196289066,0.01223831081390381,0.03702264279127121,-0.0035446166993030577,0.009333801269752254,0.04248909950356828,None,None,None,None,None,None,None
cf1,7989.78,0.49989938354492186,0.4915782470703125,0.014711540222167968,0.07109300792217255,-0.0034179687499278355,0.003120422363213249,0.025893783568770694,None,None,None,None,None,None,None
cf2,7989.78,0.5008746032714844,-0.5011705627441406,0.009792399406433106,0.41074833273887634,0.0006057739257693151,-0.00022888183592917333,0.0956107139566533,None,None,None,None,None,None,None
cf3,7989.78,-0.5054158325195313,0.49836126708984374,0.01449340057373047,0.13256558775901794,-0.008163452148257089,0.020887756347198007,0.1127544879888718,None,None,None,None,None,None,None
cf1,7989.799999999999,0.4998721923828125,0.49162164306640627,0.01618350601196289,0.07109300792217255,-0.0013595581055003219,0.0021697998047395415,0.07359828949148642,None,None,None,None,None,None,None
cf2,7989.799999999999,0.5007425842285156,-0.501423828125,0.013266613960266113,0.41074833273887634,-0.006600952148595013,-0.012663269043266775,0.17371072769575807,None,None,None,None,None,None,None
cf3,7989.799999999999,-0.5056928100585938,0.49899951171875,0.018470947265625,0.13256558775901794,-0.013848876953453904,0.03191223144606815,0.1988773345994293,None,None,None,None,None,None,None
cf1,7989.82,0.4998399047851563,0.49160089111328126,0.019155338287353517,0.07109300792217255,-0.0016143798827758626,-0.0010375976562277955,0.14859161376628793,None,None,None,None,None,None,None
cf2,7989.82,0.5004949951171875,-0.5016772155761718,0.018821819305419922,0.41074833273887634,-0.012379455566132302,-0.012669372558317026,0.2777602672516275,None,None,None,None,None,None,None
cf3,7989.82,-0.5060933837890625,0.500036865234375,0.024481576919555666,0.13256558775901794,-0.020028686523000626,0.05186767578011535,0.3005314826899734,None,None,None,None,None,None,None
cf1,7989.839999999999,0.4997488708496094,0.491586181640625,0.023749784469604494,0.4294695258140564,-0.00455169677745165,-0.0007354736328298473,0.22972230911798106,None,None,None,None,None,None,None
cf2,7989.839999999999,0.5000463562011719,-0.50199560546875,0.026744874954223632,1.0271129608154297,-0.022431945801313115,-0.015919494629284072,0.39615278244955326,None,None,None,None,None,None,None
cf3,7989.839999999999,-0.5066349182128906,0.501344482421875,0.032591773986816404,0.8340645432472229,-0.027076721192044975,0.06538085937654876,0.40550985337262596,None,None,None,None,None,None,None
cf1,7989.86,0.4996171569824219,0.4915694580078125,0.029987085342407228,0.4294695258140564,-0.006585693359232337,-0.0008361816406077915,0.31186504363332934,None,None,None,None,None,None,None
cf2,7989.86,0.49932037353515624,-0.5023936767578125,0.03715884017944336,1.0271129608154297,-0.03629913329998994,-0.019903564452693125,0.5206982612496207,None,None,None,None,None,None,None
cf3,7989.86,-0.5073737487792969,0.5029926452636719,0.04276192092895508,0.8340645432472229,-0.03694152831950481,0.08240814208804713,0.5085073470958342,None,None,None,None,None,None,None
cf1,7989.879999999999,0.49942739868164066,0.49159027099609376,0.0379941635131836,1.007930040359497,-0.009487915039285238,0.001040649414088174,0.40035390854828556,None,None,None,None,None,None,None
cf2,7989.879999999999,0.49861123657226564,-0.5026448669433594,0.049446792602539064,1.7189210653305054,-0.035456848145368425,-0.012559509277640388,0.6143976211693137,None,None,None,None,None,None,None
cf3,7989.879999999999,-0.5082209777832032,0.5050115966796875,0.05494855117797852,2.170504093170166,-0.04236145019631794,0.10094757080316719,0.6093315124655807,None,None,None,None,None,None,None
cf1,7989.9,0.49927337646484377,0.49161260986328126,0.047516155242919925,1.007930040359497,-0.007701110839676384,0.0011169433593505751,0.47609958647642414,None,None,None,None,None,None,None
cf2,7989.9,0.49759344482421874,-0.5030855102539062,0.06388340377807618,1.7189210653305054,-0.0508895874012338,-0.022032165526860527,0.7218305587610997,None,None,None,None,None,None,None
cf3,7989.9,-0.5091763000488282,0.507362548828125,0.0688644790649414,2.170504093170166,-0.0477661132802075,0.11754760741930928,0.6957963943329566,None,None,None,None,None,None,None
cf1,7989.92,0.49910455322265623,0.4915927734375,0.05832947540283203,1.007930040359497,-0.008441162109192369,-0.0009918212890402955,0.5406660079838037,None,None,None,None,None,None,None
cf2,7989.92,0.49642117309570316,-0.5036256408691406,0.08016119384765626,1.7189210653305054,-0.05861358642449978,-0.027006530761130056,0.8138895034612385,None,None,None,None,None,None,None
cf3,7989.92,-0.5101300048828125,0.510029296875,0.08435130310058594,2.170504093170166,-0.04768524169817264,0.13333740234083677,0.7743412017653247,None,None,None,None,None,None,None
cf1,7989.94,0.49892596435546877,0.4916409606933594,0.07021157836914063,1.5843567848205566,-0.008929443359584555,0.002409362793025302,0.5941051483294788,None,None,None,None,None,None,None
cf2,7989.94,0.49507354736328124,-0.5041448974609375,0.09779254913330078,2.489469528198242,-0.06738128662268934,-0.0259628295904568,0.8815677643030725,None,None,None,None,None,None,None
cf3,7989.94,-0.5111261596679688,0.5128969116210937,0.10136621856689454,2.738020420074463,-0.04980773925899558,0.14338073730807854,0.8507457733355472,None,None,None,None,None,None,None
cf1,7989.96,0.49874411010742187,0.4916995544433594,0.0830372314453125,1.5843567848205566,-0.009092712402146408,0.002929687499936162,0.6412826537945955,None,None,None,None,None,None,None
cf2,7989.96,0.4935863342285156,-0.5046099243164063,0.11663616180419922,2.489469528198242,-0.07436065673665838,-0.023251342772931793,0.9421806335243564,None,None,None,None,None,None,None
cf3,7989.96,-0.5121725463867187,0.5158576049804687,0.11978533172607422,2.738020420074463,-0.05231933593635314,0.14803466796551815,0.9209556579388817,None,None,None,None,None,None,None
cf1,7989.98,0.49856826782226565,0.4918337707519531,0.096469970703125,2.024911403656006,-0.008792114258018586,0.006710815429845013,0.6716369629065074,None,None,None,None,None,None,None
cf2,7989.98,0.49201690673828125,-0.5050482177734376,0.1362746124267578,2.8604652881622314,-0.07847137451357386,-0.021914672852082224,0.9819225311511489,None,None,None,None,None,None,None
cf3,7989.98,-0.513120849609375,0.5187034301757812,0.1392348175048828,2.881532907485962,-0.04741516113393452,0.14229125976899037,0.9724742889634255,None,None,None,None,None,None,None
cf1,7990.0,0.49838876342773436,0.4919779052734375,0.11032679748535157,2.024911403656006,-0.008975219726368767,0.007206726074061376,0.6928413390962049,None,None,None,None,None,None,None
cf2,7990.0,0.49041897583007815,-0.5054078369140625,0.15641680908203126,2.8604652881622314,-0.07989654540841071,-0.017980957030856982,1.0071098327416894,None,None,None,None,None,None,None
cf3,7990.0,-0.5140899047851563,0.5215341796875,0.15963687133789062,2.881532907485962,-0.048452758788006124,0.1415374755828505,1.0201026916281235,None,None,None,None,None,None,None
cf1,7990.0199999999995,0.49826846313476564,0.49206423950195316,0.12441815185546876,2.024911403656006,-0.006015014648578359,0.00431671142588568,0.7045677185225202,None,None,None,None,None,None,None
cf2,7990.0199999999995,0.4887925415039063,-0.5057621765136718,0.17688624572753905,3.0533201694488525,-0.08132171631051686,-0.017716979980883348,1.0234718322995915,None,None,None,None,None,None,None
cf3,7990.0199999999995,-0.5148534545898438,0.5242107543945312,0.18078384399414063,2.881532907485962,-0.038177490235278444,0.13382873535472456,1.0573486328375037,None,None,None,None,None,None,None
cf1,7990.04,0.4981922302246094,0.49215939331054687,0.13863967895507812,2.5792274475097656,-0.0038116455077286783,0.004757690429581474,0.7110763549649467,None,None,None,None,None,None,None
cf2,7990.04,0.4872284851074219,-0.5061300354003906,0.19747746276855468,3.0533201694488525,-0.07820281982251207,-0.018392944335536156,1.0295608520283084,None,None,None,None,None,None,None
cf3,7990.04,-0.5154349365234375,0.5266414184570313,0.20232621765136719,2.8794186115264893,-0.02907409667905301,0.12153320312234879,1.0771186828378165,None,None,None,None,None,None,None
cf1,7990.0599999999995,0.49816552734375,0.4921964111328125,0.1528781433105469,2.5792274475097656,-0.001335144043000322,0.001850891113324618,0.7119232177902733,None,None,None,None,None,None,None
cf2,7990.0599999999995,0.48564675903320315,-0.5064668884277344,0.21792205810546875,3.0533201694488525,-0.07908630371280753,-0.016842651367586486,1.0222297668698757,None,None,None,None,None,None,None
cf3,7990.0599999999995,-0.5158798828125,0.5289804077148438,0.22412661743164064,2.8794186115264893,-0.022247314453648193,0.11694946289339084,1.0900199890394484,None,None,None,None,None,None,None
cf1,7990.08,0.49821841430664066,0.49226846313476563,0.16702630615234376,3.0823378562927246,0.002644348144473796,0.003602600097578812,0.7074081420744025,None,None,None,None,None,None,None
cf2,7990.08,0.484161865234375,-0.5067587890625,0.23808477783203125,3.1720874309539795,-0.07424468993978726,-0.014595031737966224,1.0081359863061194,None,None,None,None,None,None,None
cf3,7990.08,-0.5161397705078125,0.5310068359375,0.24596537780761718,2.789541244506836,-0.012994384765340783,0.10132141113059816,1.0919380187749923,None,None,None,None,None,None,None
cf1,7990.099999999999,0.49827597045898436,0.4923477783203125,0.1809462127685547,3.0823378562927246,0.0028778076172534194,0.003965759277437772,0.6959953308270044,None,None,None,None,None,None,None
cf2,7990.099999999999,0.48278921508789063,-0.5069803466796875,0.25779541015625,3.1720874309539795,-0.06863250732584071,-0.011077880859634515,0.9855316162342431,None,None,None,None,None,None,None
cf3,7990.099999999999,-0.5162901611328126,0.5327940673828125,0.26766510009765626,2.789541244506836,-0.007519531250183187,0.08936157226774136,1.0849861145276105,None,None,None,None,None,None,None
cf1,7990.12,0.49838052368164065,0.49240209960937503,0.1944423828125,3.0823378562927246,0.005227661132700368,0.0027160644530667133,0.6748085021825364,None,None,None,None,None,None,None
cf2,7990.12,0.48139639282226565,-0.5070888671875,0.27681094360351566,3.1720874309539795,-0.069641113279729,-0.005426025390507317,0.9507766723425287,None,None,None,None,None,None,None
cf3,7990.12,-0.5162619018554687,0.5343085937500001,0.28899478149414065,2.789541244506836,0.0014129638671614097,0.07572631835772299,1.0664840698009403,None,None,None,None,None,None,None
cf1,7990.139999999999,0.49845285034179687,0.4923297119140625,0.20756512451171874,3.419149160385132,0.0036163330078964606,-0.00361938476571243,0.6561370849764522,None,None,None,None,None,None,None
cf2,7990.139999999999,0.48017559814453126,-0.5072227783203125,0.2952867126464844,3.192686080932617,-0.061039733888163084,-0.006695556640781819,0.9237884521702805,None,None,None,None,None,None,None
cf3,7990.139999999999,-0.5161167602539063,0.535593017578125,0.30985671997070313,2.607834815979004,0.007257080078292922,0.06422119140776823,1.04309692385279,None,None,None,None,None,None,None
cf1,7990.16,0.49866357421875,0.4923331298828125,0.22021121215820313,3.419149160385132,0.010536193847427267,0.00017089843749777954,0.6323043823104179,None,None,None,None,None,None,None
cf2,7990.16,0.47896173095703126,-0.5072117309570313,0.3128232421875,3.192686080932617,-0.06069335937367495,0.0005523681640464018,0.876826477031643,None,None,None,None,None,None,None
cf3,7990.16,-0.5158695678710937,0.5365531005859375,0.3301116027832031,2.607834815979004,0.012359619140358546,0.04800415038957584,1.0127441406028932,None,None,None,None,None,None,None
cf1,7990.179999999999,0.4987332763671875,0.4922467956542969,0.23231340026855468,3.419149160385132,0.003485107421956879,-0.0043167114258829044,0.6051094055318863,None,None,None,None,None,None,None
cf2,7990.179999999999,0.47789099121093753,-0.507196044921875,0.32952984619140624,3.176626443862915,-0.05353698730595246,0.0007843017578353983,0.8353302002150641,None,None,None,None,None,None,None
cf3,7990.179999999999,-0.5154326782226563,0.5372745361328125,0.34959405517578124,2.607834815979004,0.021844482422389865,0.036071777344602096,0.9741226196519409,None,None,None,None,None,None,None
cf1,7990.2,0.49900198364257814,0.4921917419433594,0.24389692687988282,3.6066513061523438,0.013435363769238429,-0.002752685546815048,0.5791763305537647,None,None,None,None,None,None,None
cf2,7990.2,0.4769302368164063,-0.5071254272460938,0.345334716796875,3.176626443862915,-0.04803771972551389,0.003530883788983119,0.7902435302561885,None,None,None,None,None,None,None
cf3,7990.2,-0.5148929443359375,0.5377005004882812,0.3683527526855469,2.365492820739746,0.026986694335350746,0.02129821777297065,0.9379348754678102,None,None,None,None,None,None,None
cf1,7990.219999999999,0.4992096557617188,0.49209246826171876,0.2548751068115234,3.6066513061523438,0.010383605957277234,-0.004963684082149558,0.5489089965950101,None,None,None,None,None,None,None
cf2,7990.219999999999,0.47607778930664063,-0.5069939880371094,0.3601795043945313,3.176626443862915,-0.042622375489290515,0.006571960449375222,0.7422393799003658,None,None,None,None,None,None,None
cf3,7990.219999999999,-0.5142033081054688,0.5378839111328125,0.3862913513183594,2.365492820739746,0.03448181152425005,0.009170532226782463,0.8969299316618344,None,None,None,None,None,None,None
cf1,7990.24,0.49942544555664065,0.4919598083496094,0.2652148742675781,3.668645143508911,0.010789489745858106,-0.006632995605323588,0.5169883727914499,None,None,None,None,None,None,None
cf2,7990.24,0.475367431640625,-0.5068989868164062,0.37396109008789064,3.080289125442505,-0.035517883300006034,0.004750061035054387,0.6890792846529267,None,None,None,None,None,None,None
cf3,7990.24,-0.5134396362304687,0.5378321533203125,0.4032623291015625,2.143643856048584,0.038183593749168444,-0.0025878906249433785,0.8485488891416336,None,None,None,None,None,None,None
cf1,7990.259999999999,0.49975222778320316,0.4918214111328125,0.2749931640625,3.668645143508911,0.01633911132851219,-0.006919860840007161,0.4889144897576564,None,None,None,None,None,None,None
cf2,7990.259999999999,0.4747131652832031,-0.5066562194824219,0.3868649597167969,3.080289125442505,-0.032713317871867785,0.012138366699502898,0.6451934814605704,None,None,None,None,None,None,None
cf3,7990.259999999999,-0.512560791015625,0.5375523071289062,0.41933819580078124,2.143643856048584,0.04394226074322487,-0.01399230957064626,0.8037933349799439,None,None,None,None,None,None,None
cf1,7990.28,0.5000608520507812,0.49169320678710937,0.2840245666503906,3.631531238555908,0.015431213378565688,-0.00641021728501775,0.4515701293846727,None,None,None,None,None,None,None
cf2,7990.28,0.4741418151855469,-0.50636767578125,0.39879888916015627,2.8573813438415527,-0.028567504882188555,0.0144271850582815,0.5966964721549434,None,None,None,None,None,None,None
cf3,7990.28,-0.5116225891113282,0.5370618286132812,0.43445233154296875,1.8952791690826416,0.04691009521381763,-0.024523925780714873,0.7557067870928799,None,None,None,None,None,None,None
cf1,7990.299999999999,0.5003759155273437,0.4915248107910156,0.29255108642578126,3.631531238555908,0.015753173828498314,-0.008419799804886646,0.4263259887796138,None,None,None,None,None,None,None
cf2,7990.299999999999,0.47376766967773437,-0.5059886779785157,0.40969888305664065,2.8573813438415527,-0.0187072753910677,0.01894989013716388,0.5449996948371068,None,None,None,None,None,None,None
cf3,7990.299999999999,-0.5106192321777344,0.5363351440429688,0.4487102966308594,1.8952791690826416,0.05016784668087475,-0.03633422851648126,0.712898254411389,None,None,None,None,None,None,None
cf1,7990.32,0.5006446228027344,0.49132110595703127,0.3005159912109375,3.631531238555908,0.013435363769238429,-0.010185241698995318,0.3982452392491206,None,None,None,None,None,None,None
cf2,7990.32,0.4734281005859375,-0.5056124572753906,0.41981884765625,2.8573813438415527,-0.01697845458947377,0.018811035155841437,0.5059982299694223,None,None,None,None,None,None,None
cf3,7990.32,-0.5095023803710937,0.535381103515625,0.46190716552734373,1.8952791690826416,0.05584259033081472,-0.047702026366149994,0.659843444809815,None,None,None,None,None,None,None
cf1,7990.339999999999,0.5009853210449219,0.49114163208007816,0.3078748168945313,3.5276999473571777,0.017034912109778845,-0.00897369384786754,0.3679412841883882,None,None,None,None,None,None,None
cf2,7990.339999999999,0.47330761718750003,-0.5051422729492188,0.42892138671875,2.5796499252319336,-0.006024169922015166,0.023509216309148515,0.4551269531357636,None,None,None,None,None,None,None
cf3,7990.339999999999,-0.5083670654296875,0.5343187866210938,0.47428125,1.6203159093856812,0.05676574707165656,-0.05311584472781497,0.6187042236474432,None,None,None,None,None,None,None
cf1,7990.36,0.5013613586425781,0.4909365234375,0.31457498168945314,3.5276999473571777,0.018801879882402273,-0.010255432128684483,0.3350082397387804,None,None,None,None,None,None,None
cf2,7990.36,0.4731953735351563,-0.5046628723144532,0.4371845397949219,2.5796499252319336,-0.0056121826170648205,0.023970031737756393,0.41315765379957514,None,None,None,None,None,None,None
cf3,7990.36,-0.5071344604492187,0.5330308837890625,0.4857455749511719,1.6203159093856812,0.061630249022091355,-0.06439514160015862,0.5732162475460824,None,None,None,None,None,None,None
cf1,7990.379999999999,0.5017785339355468,0.4906864013671875,0.3207581176757813,3.4203240871429443,0.02085876464892808,-0.012506103515920597,0.3091567993237174,None,None,None,None,None,None,None
cf2,7990.379999999999,0.47321389770507816,-0.5041539001464844,0.4447749938964844,2.3080615997314453,0.0009262084961156076,0.0254486083990391,0.3795227050870998,None,None,None,None,None,None,None
cf3,7990.379999999999,-0.5058533630371094,0.5315298461914063,0.496382568359375,1.4546163082122803,0.06405487060698246,-0.075051879884584,0.5318496704227327,None,None,None,None,None,None,None
cf1,7990.4,0.5021062316894531,0.49041381835937503,0.3264954833984375,3.4203240871429443,0.016384887694956673,-0.013629150390325796,0.28686828612654863,None,None,None,None,None,None,None
cf2,7990.4,0.47329379272460936,-0.5035926513671876,0.4515712280273438,2.3080615997314453,0.003994750976473127,0.028062438964230628,0.3398117065355522,None,None,None,None,None,None,None
cf3,7990.4,-0.5045372924804687,0.5299795532226562,0.5062545471191406,1.4546163082122803,0.0658035278305949,-0.07751464843581246,0.4935989379775079,None,None,None,None,None,None,None
cf1,7990.42,0.5024891662597656,0.49018948364257814,0.3317679443359375,3.4203240871429443,0.019146728515205335,-0.011216735839599779,0.2636230468692457,None,None,None,None,None,None,None
cf2,7990.42,0.4735476684570313,-0.5029961853027344,0.4576848449707031,2.3080615997314453,0.012693786620818692,0.029823303222008157,0.3056808471612938,None,None,None,None,None,None,None
cf3,7990.42,-0.5031506042480469,0.5282195434570313,0.51534912109375,1.4546163082122803,0.06933441161957801,-0.08800048827932709,0.45472869872054084,None,None,None,None,None,None,None
cf1,7990.44,0.5028544921875,0.4899593200683594,0.33651318359375,3.2932748794555664,0.018266296387152776,-0.011508178711208811,0.2372619628962358,None,None,None,None,None,None,None
cf2,7990.44,0.4738912048339844,-0.5023311462402343,0.46318118286132814,2.022360324859619,0.01717681884806183,0.033251953125788256,0.2748168945377504,None,None,None,None,None,None,None
cf3,7990.44,-0.5018265991210937,0.5264365234375,0.523807861328125,1.3548192977905273,0.06620025634922479,-0.08915100097866985,0.4229370117287503,None,None,None,None,None,None,None
cf1,7990.46,0.503186279296875,0.48976968383789066,0.3408645935058594,3.2932748794555664,0.016589355468386958,-0.009481811523230443,0.21757049560072173,None,None,None,None,None,None,None
cf2,7990.46,0.47432647705078124,-0.5016096801757812,0.4681582946777344,2.022360324859619,0.021763610839367186,0.03607330322186827,0.24885559081488073,-0.0025478794374910736,-0.004223124011899998,0.0318417053222656,None,None,None,None
cf3,7990.46,-0.5004460144042969,0.5244729614257813,0.531651123046875,1.3548192977905273,0.06902923583833356,-0.09817810058379532,0.3921630859289424,None,None,None,None,None,None,None
cf1,7990.48,0.5036051330566407,0.48954998779296877,0.34487194824218753,3.15805721282959,0.02094268798877981,-0.010984802246354305,0.20036773682114448,None,None,None,None,None,None,None
cf2,7990.48,0.474818115234375,-0.5009757690429688,0.4727058410644531,1.760690450668335,0.024581909180269673,0.031695556641370234,0.22737731934131306,-0.004531100355407324,-0.00662561354112843,0.027294158935546875,None,None,None,None
cf3,7990.48,-0.49903631591796876,0.5224619750976562,0.5388999633789062,1.3143271207809448,0.07048492431807471,-0.10054931640862866,0.36244201661013137,None,None,None,None,None,None,None
cf1,7990.5,0.5039663696289063,0.48928408813476565,0.34859805297851565,3.15805721282959,0.01806182861288629,-0.013294982909865648,0.18630523681233924,None,None,None,None,None,None,None
cf2,7990.5,0.47545120239257815,-0.50024267578125,0.47675662231445315,1.760690450668335,0.031654357909466524,0.03665466308513869,0.2025390624955802,-0.006526759206280309,-0.008737798158804615,0.02324337768554685,None,None,None,None
cf3,7990.5,-0.49766433715820313,0.52040087890625,0.54561376953125,1.3143271207809448,0.06859893798678439,-0.10305480956806375,0.33569030760985946,None,None,None,None,None,None,None
cf1,7990.5199999999995,0.5043537292480469,0.48901034545898436,0.35195092773437503,3.15805721282959,0.019367980957488175,-0.013687133789387934,0.16764373779693328,None,None,None,None,None,None,None
cf2,7990.5199999999995,0.47613784790039065,-0.4993362731933594,0.47998382568359377,1.760690450668335,0.03433227539143685,0.04532012939560435,0.1613601684608466,-0.00819597312003055,-0.01092558909651583,0.020016174316406232,None,None,None,None
cf3,7990.5199999999995,-0.4963053588867188,0.5182685546875,0.5519558715820313,1.3143271207809448,0.06794891357582407,-0.1066162109400202,0.31710510254656554,None,None,None,None,None,None,None
cf1,7990.54,0.5046962890625,0.48875711059570315,0.355060791015625,3.049561023712158,0.017127990722280162,-0.012661743163784388,0.15549316405910382,-0.0022793462275798823,0.0016849902001298644,0.044939208984375034,None,None,None,None
cf2,7990.54,0.47677029418945316,-0.49859884643554686,0.4832008972167969,1.6281005144119263,0.031622314452435,0.0368713378898212,0.16085357665664435,-0.009570374008070367,-0.012406528812056053,0.016799102783203124,None,None,None,None
cf3,7990.54,-0.49491128540039064,0.51609033203125,0.5577501220703125,1.270993709564209,0.06970367431488553,-0.10891113281012302,0.28971252440773587,None,None,None,None,None,None,None
cf1,7990.5599999999995,0.5049774169921875,0.48855239868164063,0.35804937744140625,3.049561023712158,0.01405639648470668,-0.01023559570336786,0.14942932129259648,-0.0037209471314786336,0.002732129600967432,0.041950622558593775,None,None,None,None
cf2,7990.5599999999995,0.4776007995605469,-0.4978594055175781,0.48592776489257816,1.6281005144119263,0.041525268555669355,0.03697204589931111,0.1363433837922884,-0.011294900205562017,-0.013615467168391378,0.014072235107421838,None,None,None,None
cf3,7990.5599999999995,-0.4935740356445313,0.5139044189453125,0.5632323608398437,1.270993709564209,0.06686248779454908,-0.10929565429946043,0.2741119384830441,-0.005629476692125445,0.009202130502831406,0.03676763916015624,None,None,None,None
cf1,7990.58,0.5052919921875,0.4883122863769531,0.36069546508789063,2.992886543273926,0.01572875976528305,-0.012005615234113542,0.13230438232133135,-0.00506154123418171,0.0037657405819051955,0.03930453491210939,None,None,None,None
cf2,7990.58,0.4783327941894531,-0.4971436462402344,0.48821560668945313,1.533963680267334,0.03659973144451203,0.035787963866405904,0.11439208984125145,-0.012612855014334063,-0.014731029852252622,0.01178439331054687,None,None,None,None
cf3,7990.58,-0.49225347900390626,0.5117070007324219,0.5683776855468751,1.215311884880066,0.06602783202981004,-0.109870910642129,0.2572662353459509,-0.008532231368404343,0.014071603129347451,0.03162231445312491,None,None,None,None
cf1,7990.599999999999,0.5055740051269532,0.48808587646484375,0.36318374633789063,2.992886543273926,0.01410064697299244,-0.011320495605736244,0.1244140625029421,-0.00609469960341158,0.004617284426702879,0.03681625366210939,None,None,None,None
cf2,7990.599999999999,0.4791487426757813,-0.4964186706542969,0.489926513671875,1.533963680267334,0.04079742431737249,0.03624877929773126,0.08554534912311679,-0.013993596378926273,-0.015736795328816285,0.010073486328124992,None,None,None,None
cf3,7990.599999999999,-0.4909933471679688,0.5095431518554687,0.5732442016601562,1.215311884880066,0.06300659179836408,-0.10819244385021844,0.24332580566981138,-0.010597110843702276,0.017708598227072176,0.02675579833984376,None,None,None,None
cf1,7990.62,0.5058489379882812,0.48783599853515625,0.3652996215820313,2.992886543273926,0.013746643066103436,-0.01249389648410244,0.10579376220472282,-0.006974980055702226,0.005478195887814702,0.03470037841796875,None,None,None,None
cf2,7990.62,0.4799754333496094,-0.49566543579101563,0.49120928955078125,1.533963680267334,0.04133453369050392,0.03766174316324149,0.06413879394391195,-0.015268561666757918,-0.016727808757556733,0.008790710449218753,None,None,None,None
cf3,7990.62,-0.48979046630859374,0.5074571838378906,0.5776908569335938,1.215311884880066,0.060144042967438825,-0.10429840087662835,0.22233276366702553,-0.012247148611809885,0.020647370472669607,0.02230914306640619,None,None,None,None
cf1,7990.639999999999,0.5060924072265625,0.48756497192382814,0.3671455383300781,2.915177345275879,0.012173461914349076,-0.013551330566725786,0.09229583740452499,-0.007650282423135081,0.00635972611806521,0.0328544616699219,None,None,None,None
cf2,7990.639999999999,0.4807161560058594,-0.4949933471679688,0.49218997192382813,1.3142300844192505,0.0370361328133743,0.033604431153137215,0.049034118653503586,-0.016335023818367257,-0.017562487936001122,0.007810028076171871,None,None,None,None
cf3,7990.639999999999,-0.4886363525390625,0.5053842163085938,0.5816710815429688,1.1567606925964355,0.057705688477925995,-0.10364837646729422,0.19901123047345456,-0.013615584097244808,0.023230530461135098,0.018328918457031218,None,None,None,None
cf1,7990.66,0.5063557434082031,0.4873590698242188,0.36854571533203123,2.915177345275879,0.01316680908174509,-0.010295104980243098,0.0700088500961272,-0.008389623951457653,0.006919821993070597,0.03145428466796879,None,None,None,None
cf2,7990.66,0.481485595703125,-0.4942648010253906,0.49266253662109377,1.3142300844192505,0.03847198486244109,0.036427307128113276,0.023628234862766384,-0.01736256239837259,-0.01844156095370781,0.007337463378906228,None,None,None,None
cf3,7990.66,-0.48754290771484377,0.5034353637695312,0.5852479248046875,1.1567606925964355,0.05467224120974401,-0.09744262695099892,0.17884216308203119,-0.014802466370354905,0.025422793199029296,0.01475207519531252,None,None,None,None
cf1,7990.679999999999,0.506594970703125,0.4870646057128906,0.369748046875,2.7455806732177734,0.01196136474637651,-0.014723205566756317,0.06011657714986067,-0.008939966959560793,0.007761256156747374,0.03025195312500001,None,None,None,None
cf2,7990.679999999999,0.48216818237304687,-0.4936354675292969,0.4928759765625,1.0743290185928345,0.03412933349690109,0.03146667480543065,0.010671997070562994,-0.01823676871768603,-0.019159298276002677,0.0071240234375000155,None,None,None,None
cf3,7990.679999999999,-0.48647595214843753,0.5015131225585938,0.5881773681640625,1.1567606925964355,0.053347778321573294,-0.09611206054914402,0.14647216797221668,-0.01586774016316699,0.027421248847828008,0.011822631835937458,None,None,None,None
cf1,7990.7,0.50676904296875,0.4868739929199219,0.3704647216796875,2.7455806732177734,0.008703613281062372,-0.009530639648228223,0.035833740233593404,-0.00933719981594565,0.00825878243623029,0.029535278320312497,None,None,None,None
cf2,7990.7,0.48282550048828127,-0.49306817626953126,0.492792724609375,1.0743290185928345,0.03286590576100238,0.028364562987662024,-0.004162597656157852,-0.019061772095991487,-0.019763015389874176,0.00720727539062499,None,None,None,None
cf3,7990.7,-0.48544082641601566,0.49966845703125,0.5906572265625,1.0383435487747192,0.05175628661996382,-0.09223327636517689,0.12399291991916606,-0.016844455160452135,0.029208461548107873,0.009342773437500007,None,None,None,None
cf1,7990.719999999999,0.5068838500976562,0.486691162109375,0.3708777770996094,2.7455806732177734,0.0057403564454464205,-0.009141540527559897,0.0206527709965819,-0.00954913824214283,0.008753021586978679,0.029122222900390626,None,None,None,None
cf2,7990.719999999999,0.4834666748046875,-0.4924871215820313,0.4924076232910156,1.0743290185928345,0.03205871582107092,0.029052734375685563,-0.019255065918424984,-0.019822044464049508,-0.020377975710551183,0.007592376708984383,None,None,None,None
cf3,7990.719999999999,-0.48455410766601564,0.49801388549804687,0.5926292724609376,1.0383435487747192,0.04433593750104916,-0.08272857666211336,0.09860229492421063,-0.017612239901771395,0.030738751528582207,0.007370727539062427,None,None,None,None
cf1,7990.74,0.5070018310546875,0.486499755859375,0.370969970703125,2.468848466873169,0.00589904785143649,-0.009570312499792389,0.004609680175678832,-0.00975857623905931,0.00925182708283315,0.029030029296875037,None,None,None,None
cf2,7990.74,0.4840095520019531,-0.4920218505859375,0.4918793640136719,0.853080153465271,0.027143859862687005,0.023263549804181237,-0.026412963866610184,-0.020457234297190704,-0.020843293191856235,0.008120635986328117,None,None,None,None
cf3,7990.74,-0.4836955261230469,0.49642779541015625,0.5940662841796875,0.9240331649780273,0.04292907714750047,-0.07930450439280014,0.07185058593593126,-0.018330364390551898,0.032135270755612955,0.005933715820312435,None,None,None,None
cf1,7990.759999999999,0.5070981750488281,0.48630584716796876,0.37076394653320316,2.468848466873169,0.004817199707144007,-0.00969543457054079,-0.010301208496334877,-0.00989871969923112,0.009754636255593797,0.029236053466796863,None,None,None,None
cf2,7990.759999999999,0.48449658203125,-0.49154910278320313,0.49115380859375,0.853080153465271,0.02435150146542072,0.023637390137277677,-0.03627777099695105,-0.020985879383349212,-0.02133546589494486,0.008846191406249981,None,None,None,None
cf3,7990.759999999999,-0.48285928344726564,0.4949593505859375,0.5950328369140625,0.9240331649780273,0.04181213379005129,-0.07342224121267431,0.04832763671989075,-0.01902859682708961,0.03336316472959938,0.004967163085937476,None,None,None,None
cf1,7990.78,0.5071712646484375,0.4860933837890625,0.37032022094726563,2.087804079055786,0.0036544799803896466,-0.010623168945079909,-0.022186279296392053,-0.009956812584725286,0.010308172404936656,0.02967977905273439,None,None,None,None
cf2,7990.78,0.4849670715332031,-0.4911110534667969,0.49034469604492187,0.6195319294929504,0.02352447509714194,0.02190246581983344,-0.04045562744052446,-0.021493001802091957,-0.02177287617736862,0.009655303955078132,None,None,None,None
cf3,7990.78,-0.4821337585449219,0.49364993286132813,0.5955084838867187,0.9240331649780273,0.0362762451163948,-0.0654708862290385,0.02378234863229236,-0.019603117691173413,0.03442777236477589,0.0044915161132812464,None,None,None,None
cf1,7990.799999999999,0.5072485961914063,0.48592807006835936,0.36964663696289063,2.087804079055786,0.0038665771485283996,-0.008265686035353662,-0.03367919921954658,-0.010059381111886735,0.010710607241279755,0.030353363037109393,None,None,None,None
cf2,7990.799999999999,0.48531030273437503,-0.4906789245605469,0.4895173950195313,0.6195319294929504,0.01716156005900141,0.021606445313010703,-0.04136505127050721,-0.021805073655506914,-0.022250229763525118,0.010482604980468713,None,None,None,None
cf3,7990.799999999999,-0.48154010009765624,0.4925530700683594,0.5957056884765625,0.8400543928146362,0.0296829223639852,-0.05484313964973299,0.009860229492419954,-0.02005308879296922,0.03529939892379617,0.004294311523437511,None,None,None,None
cf1,7990.82,0.5073110046386718,0.48574404907226565,0.36866641235351566,2.087804079055786,0.0031204223632104733,-0.009201049804484884,-0.049011230467678635,-0.010106043390034505,0.01116207611693425,0.03133358764648436,None,None,None,None
cf2,7990.82,0.48548663330078123,-0.4904050903320313,0.4886780700683594,0.6195319294929504,0.008816528320117655,0.013691711425482322,-0.04196624755767865,-0.02194051371150885,-0.02256611680434377,0.011321929931640606,None,None,None,None
cf3,7990.82,-0.48090771484375,0.4914908447265625,0.5955652465820312,0.8400543928146362,0.03161926269462194,-0.05311126708868551,-0.007022094726407624,-0.0205538569613762,0.03610610175016887,0.004434753417968729,None,None,None,None
cf1,7990.839999999999,0.5073558959960938,0.4855293579101563,0.36752435302734376,1.6873468160629272,0.002244567871148914,-0.010734558105722367,-0.0571029663099451,-0.010083229062404936,0.01169142081832992,0.03247564697265626,None,None,None,None
cf2,7990.839999999999,0.4855988464355469,-0.4901156921386719,0.48779736328125,0.423930823802948,0.005610656738416211,0.014469909668311184,-0.044035339356510626,-0.021975257928917927,-0.02292842262654052,0.012202636718749993,None,None,None,None
cf3,7990.839999999999,-0.48043475341796876,0.4906393737792969,0.595107177734375,0.7828497886657715,0.02364807128962108,-0.042573547364287735,-0.022903442383351652,-0.020903535145827264,0.036750169236712406,0.00489282226562493,None,None,None,None
cf1,7990.86,0.5073487548828125,0.48540176391601564,0.36625048828125,1.6873468160629272,-0.00035705566405528353,-0.00637969970689275,-0.0636932373032975,-0.009976872518826924,0.012020717822940513,0.033749511718750014,None,None,None,None
cf2,7990.86,0.48568688964843754,-0.4898798828125,0.4870321960449219,0.423930823802948,0.004402160644435493,0.011790466308337567,-0.03825836181557164,-0.021998902801530988,-0.023221554171010128,0.012967803955078128,None,None,None,None
cf3,7990.86,-0.4799562683105469,0.48993606567382814,0.5944642944335937,0.7828497886657715,0.02392425537057167,-0.035165405272670335,-0.03214416503836472,-0.02129828263779185,0.03724776466104867,0.005535705566406257,None,None,None,None
cf1,7990.879999999999,0.5072969055175781,0.48517727661132815,0.36491607666015624,1.292784571647644,-0.002592468261780853,-0.011224365234640066,-0.0667205810562661,-0.009683136290788468,0.012610908985666146,0.03508392333984378,None,None,None,None
cf2,7990.879999999999,0.48566833496093753,-0.4896902160644531,0.4862804870605469,0.26013314723968506,-0.0009277343750222044,0.009483337402568223,-0.037585449219638176,-0.02188874133806606,-0.0234941830401438,0.013719512939453116,None,None,None,None
cf3,7990.879999999999,-0.4795976257324219,0.489373291015625,0.5936554565429688,0.7469854950904846,0.01793212890667466,-0.02813873291082273,-0.04044189453220202,-0.021579216887927893,0.03764827188146003,0.006344543457031171,None,None,None,None
cf1,7990.9,0.5072285461425782,0.48498001098632815,0.36340261840820315,1.292784571647644,-0.0034179687499222844,-0.009863281249784616,-0.07567291259600285,-0.009364062474102233,0.013127898289895759,0.036597381591796874,None,None,None,None
cf2,7990.9,0.485566650390625,-0.4895740356445313,0.48554080200195315,0.26013314723968506,-0.005084228515514533,0.0058090209959652415,-0.03698425292887926,-0.021690039837481384,-0.023699501290087865,0.014459197998046847,None,None,None,None
cf3,7990.9,-0.47929977416992187,0.488950439453125,0.5927518920898438,0.7469854950904846,0.01489257812467526,-0.021142578124538146,-0.045178222655264125,-0.021822898373791637,0.03793810277970501,0.007248107910156176,None,None,None,None
cf1,7990.92,0.5071618347167969,0.4847744445800781,0.36193865966796873,1.292784571647644,-0.0033355712889920008,-0.010278320312276846,-0.07319793701012309,-0.009047281786671907,0.013647417911598377,0.03806134033203129,None,None,None,None
cf2,7990.92,0.4853894958496094,-0.4895597229003906,0.484941162109375,0.26013314723968506,-0.008857727050588349,0.0007156372070170946,-0.029981994628253718,-0.021424545539541925,-0.02379674862789837,0.01505883789062501,None,None,None,None
cf3,7990.92,-0.4790298767089844,0.488706298828125,0.5917467041015625,0.7469854950904846,0.013494873046579125,-0.012207031249733546,-0.05025939941296838,-0.02208212172567394,0.038075813442073114,0.008253295898437485,None,None,None,None
cf1,7990.94,0.5070772705078125,0.4845841064453125,0.3603646240234375,0.9445708394050598,-0.004228210449319711,-0.00951690673850503,-0.07870178222842282,-0.008693109507938106,0.014127849290401024,0.039635375976562526,None,None,None,None
cf2,7990.94,0.48515847778320315,-0.4895559997558594,0.48445245361328126,0.10763846337795258,-0.011550903320585199,0.00018615722656596944,-0.024435424805264123,-0.021081754370463057,-0.023903077651895477,0.015547546386718736,None,None,None,None
cf3,7990.94,-0.4788072204589844,0.4885292053222656,0.5906891479492188,0.7508268356323242,0.011132812500263678,-0.008854675293177957,-0.05287780761843581,-0.022301385001790935,0.038167462690729195,0.009310852050781193,None,None,None,None
cf1,7990.96,0.5069912719726563,0.4844505615234375,0.35881198120117186,0.9445708394050598,-0.004299926757717576,-0.006677246093604561,-0.07763214111158732,-0.008371055377939475,0.0144718807698384,0.04118801879882816,None,None,None,None
cf2,7990.96,0.484921142578125,-0.489752197265625,0.4842999267578125,0.10763846337795258,-0.011866760253647291,-0.009809875488067254,-0.007626342773270412,-0.02081389855490461,-0.023736939768669432,0.015700073242187473,None,None,None,None
cf3,7990.96,-0.4786719970703125,0.48852493286132814,0.5896690063476563,0.7508268356323242,0.006761169433446923,-0.00021362304686944888,-0.05100708007701145,-0.022464056004562062,0.038131638416340194,0.01033099365234369,None,None,None,None
cf1,7990.98,0.5068726196289063,0.48426309204101564,0.35727203369140625,0.6677798628807068,-0.005932617187638778,-0.009373474121315447,-0.07699737549010098,-0.007927430736871867,0.014940516247668333,0.04272796630859377,None,None,None,None
cf2,7990.98,0.4845340881347656,-0.4898338623046875,0.4839755554199219,0.010389947332441807,-0.019352722168427757,-0.004083251953220757,-0.016218566894916013,-0.02026425907898696,-0.02379507435123276,0.016024444580078123,None,None,None,None
cf3,7990.98,-0.47857901000976566,0.48867001342773436,0.588683349609375,0.7737864255905151,0.00464935302745165,0.0072540283204825026,-0.049282836915231706,-0.022619244778189652,0.0379755351630238,0.011316650390625016,None,None,None,None
cf1,7991.0,0.5066621704101563,0.48406463623046875,0.3557603759765625,0.6677798628807068,-0.010522460937271294,-0.009922790527128088,-0.07558288574053715,-0.007217816157947906,0.015463777274476063,0.04423962402343751,None,None,None,None
cf2,7991.0,0.48406201171875,-0.48995013427734374,0.4837518310546875,0.010389947332441807,-0.02360382080026472,-0.005813598632684824,-0.011186218261474779,-0.019587163509789562,-0.02384362504188743,0.016248168945312502,None,None,None,None
cf3,7991.0,-0.4785441284179688,0.4888927001953125,0.587634521484375,0.7737864255905151,0.0017440795898057248,0.011134338378663945,-0.05244140624885314,-0.02272740812481732,0.03776658826134204,0.012365478515624972,None,None,None,None
cf1,7991.0199999999995,0.5065284423828125,0.48380557250976564,0.35429977416992187,0.6677798628807068,-0.006686401367347788,-0.012953186035461908,-0.07303009033375939,-0.0067053903763638675,0.016048109466452548,0.045700225830078156,None,None,None,None
cf2,7991.0199999999995,0.48354473876953125,-0.49014541625976565,0.4835855712890625,0.010389947332441807,-0.025863647461550204,-0.00976409912132655,-0.008312988281447064,-0.018856946058083527,-0.023803267741561246,0.016414428710937512,None,None,None,None
cf3,7991.0199999999995,-0.4785404968261719,0.48919085693359377,0.5867200927734375,0.7737864255905151,0.00018157958984895418,0.01490783691441569,-0.04572143554795608,-0.02282086038261586,0.03749783724749862,0.01327990722656247,None,None,None,None
cf1,7991.04,0.50632080078125,0.483561767578125,0.35283718872070313,0.46055254340171814,-0.010382080077898514,-0.012190246581764519,-0.07312927245934045,-0.00599693956416312,0.016610881562066755,0.04716281127929689,None,None,None,None
cf2,7991.04,0.48292108154296876,-0.4903222351074219,0.48338821411132815,-0.05932765454053879,-0.031182861327443877,-0.00884094238261932,-0.009867858886501425,-0.01792319342601081,-0.023836209951240944,0.01661178588867185,None,None,None,None
cf3,7991.04,-0.47857662963867187,0.4895979919433594,0.5858604125976563,0.7689408659934998,-0.001806640624959477,0.020356750487837437,-0.042984008788121586,-0.02289986005713447,0.037140108089726426,0.014139587402343667,None,None,None,None
cf1,7991.0599999999995,0.5061162414550782,0.4833593444824219,0.35147833251953126,0.46055254340171814,-0.0102279663088321,-0.010121154785395294,-0.06794281006020045,-0.005323887218890915,0.017069550924549773,0.048521667480468766,None,None,None,None
cf2,7991.0599999999995,0.48229864501953124,-0.4905392150878906,0.48329608154296877,-0.05932765454053879,-0.03112182617261191,-0.010848999023692157,-0.004606628418078037,-0.016977770606333813,-0.02381232547504014,0.01670391845703123,None,None,None,None
cf3,7991.0599999999995,-0.47864947509765626,0.4900646057128906,0.5850645141601563,0.7689408659934998,-0.003642272949305833,0.023330688477112754,-0.03979492187594369,-0.022953633445564097,0.036735453860616156,0.01493548583984372,None,None,None,None
cf1,7991.08,0.5059127502441406,0.4830667114257813,0.35015737915039064,0.46055254340171814,-0.010174560546655175,-0.014631652831711783,-0.06604766845558935,-0.004634399514586189,0.017668251259842737,0.04984262084960939,None,None,None,None
cf2,7991.08,0.48159567260742187,-0.49081536865234376,0.48329690551757815,-0.13013459742069244,-0.03514862060470131,-0.013807678222356212,4.1198730467917335e-05,-0.015883054926069586,-0.023740215849233248,0.016703094482421854,None,None,None,None
cf3,7991.08,-0.47877920532226564,0.49067691040039063,0.5843762817382813,0.7670431733131409,-0.0064865112303274745,0.030615234374332202,-0.034411621092998376,-0.022984488809739863,0.036208257228015094,0.015623718261718711,None,None,None,None
cf1,7991.099999999999,0.5057615966796876,0.4828367614746094,0.34887213134765627,0.27111679315567017,-0.007557678222831457,-0.011497497558865408,-0.06426239013823802,-0.004131251853051847,0.01811578967040818,0.051127868652343755,None,None,None,None
cf2,7991.099999999999,0.4807601318359375,-0.4910156860351563,0.48312347412109374,-0.13013459742069244,-0.041777038575205115,-0.01001586914086231,-0.008671569824425181,-0.0144647541855607,-0.023828372366806138,0.016876525878906257,None,None,None,None
cf3,7991.099999999999,-0.47892886352539066,0.4913042907714844,0.5837039794921876,0.7670431733131409,-0.007482910156427635,0.03136901855543066,-0.033615112305480616,-0.022997583716648142,0.03566537433024395,0.016296020507812425,None,None,None,None
cf1,7991.12,0.5055347595214844,0.48254248046875003,0.34773843383789066,0.27111679315567017,-0.011341857909910057,-0.014714050292647617,-0.056684875487043075,-0.003409641229078872,0.018672763629191944,0.05226156616210936,None,None,None,None
cf2,7991.12,0.48006509399414066,-0.49132260131835936,0.4831178894042969,-0.13013459742069244,-0.034751892089084635,-0.015345764159819576,-0.000279235839836256,-0.013291626886748661,-0.023700048360419602,0.016882110595703104,None,None,None,None
cf3,7991.12,-0.4790717468261719,0.49195721435546874,0.5831116943359375,0.7670431733131409,-0.007144165038904848,0.032646179198504044,-0.02961425781185829,-0.023029307930689275,0.03508744877124919,0.01688830566406252,None,None,None,None
cf1,7991.139999999999,0.5053150024414063,0.482252685546875,0.34663995361328126,0.12401449680328369,-0.0109878540041675,-0.01448974609409417,-0.05492401123176875,-0.002730354655870149,0.019194135789155495,0.05336004638671876,None,None,None,None
cf2,7991.139999999999,0.47930786132812503,-0.49168167114257816,0.48320120239257813,-0.19725312292575836,-0.03786163330167672,-0.01795349121136424,0.004165649414160338,-0.011960950604076905,-0.02351595412044333,0.016798797607421867,None,None,None,None
cf3,7991.139999999999,-0.47927557373046875,0.49268798828125,0.5825592651367187,0.8127077221870422,-0.010191345215084876,0.03653869628992639,-0.027621459961589063,-0.023012752367909166,0.03444373706272924,0.017440734863281238,None,None,None,None
cf1,7991.16,0.5051300354003906,0.48194546508789066,0.34557385253906253,0.12401449680328369,-0.009248352050581688,-0.015361022948882076,-0.05330505370977288,-0.0021663350236397756,0.019715028329376764,0.05442614746093749,None,None,None,None
cf2,7991.16,0.4784940490722656,-0.49210537719726566,0.4833008117675781,-0.19725312292575836,-0.04069061279208251,-0.021185302733912593,0.004980468749890088,-0.01046482128172906,-0.023248852223351456,0.01669918823242189,None,None,None,None
cf3,7991.16,-0.47949856567382815,0.49347164916992187,0.5820256958007812,0.8127077221870422,-0.011149597167726445,0.0391830444327386,-0.026678466796293245,-0.022992041347779053,0.03374159141320767,0.01797430419921875,None,None,None,None
cf1,7991.179999999999,0.5049422302246094,0.4817051391601563,0.3446945495605469,0.00804031640291214,-0.009390258789282463,-0.012016296387002898,-0.043965148926821046,-0.0016202706682736856,0.02011281537851871,0.05530545043945312,None,None,None,None
cf2,7991.179999999999,0.47773248291015624,-0.49248657226562503,0.4833613586425781,-0.24321867525577545,-0.03807830810636907,-0.01905975341841943,0.0030273437500721646,-0.00897408902325529,-0.02299913765478031,0.01663864135742188,None,None,None,None
cf3,7991.179999999999,-0.47969952392578125,0.4942010498046875,0.5815934448242187,0.8127077221870422,-0.01004791259789252,0.036470031739143406,-0.021612548828637092,-0.02298364465223709,0.033072796022181904,0.01840655517578127,None,None,None,None
cf1,7991.2,0.5047351379394531,0.4813999633789063,0.3436769104003906,0.00804031640291214,-0.01035461425758657,-0.015258789062166933,-0.05088195800670394,-0.0010322196326552305,0.02059624222536969,0.05632308959960941,None,None,None,None
cf2,7991.2,0.47695269775390625,-0.4929461364746094,0.48342205810546873,-0.24321867525577545,-0.038989257811648456,-0.022978210448716098,0.003034973144464359,-0.007377637714485186,-0.022616156172412003,0.016577941894531267,None,None,None,None
cf3,7991.2,-0.4799053649902344,0.4950152587890625,0.5811339721679688,0.8274856805801392,-0.010292053222432818,0.04071044921786182,-0.022973632811993737,-0.023001167728622273,0.03230400277269672,0.018866027832031174,None,None,None,None
cf1,7991.219999999999,0.5045154113769531,0.481086181640625,0.34287649536132814,0.00804031640291214,-0.010986328125260902,-0.01568908691443512,-0.04002075195407008,-0.0004300031274984413,0.021074779555141854,0.057123504638671885,None,None,None,None
cf2,7991.219999999999,0.4761505126953125,-0.4933916931152344,0.4835058288574219,-0.24321867525577545,-0.040109252930636045,-0.022277832031777356,0.004188537597756517,-0.005615288258262901,-0.022218134601008153,0.016494171142578118,None,None,None,None
cf3,7991.219999999999,-0.48013421630859376,0.49583209228515623,0.580708740234375,0.8274856805801392,-0.01144256591823902,0.0408416748056527,-0.02126159668019196,-0.02299371968860923,0.03152264384856304,0.019291259765624957,None,None,None,None
cf1,7991.24,0.5043512573242188,0.4807450256347656,0.3421600341796875,-0.11619552969932556,-0.008207702636535285,-0.01705780029259655,-0.03582305908125048,6.452653690697772e-06,0.021575602719970634,0.05783996582031253,None,None,None,None
cf2,7991.24,0.47539907836914064,-0.4937921142578125,0.48352752685546874,-0.25663959980010986,-0.03757171630777302,-0.020021057128467988,0.0010848999023190475,-0.003852649221068724,-0.02181740984820027,0.016472473144531263,None,None,None,None
cf3,7991.24,-0.4803658447265625,0.4965679626464844,0.5803660888671875,0.7909731864929199,-0.011581420898184924,0.03679351806560495,-0.017132568358999744,-0.02295682428507736,0.030811827131565758,0.01963391113281243,None,None,None,None
cf1,7991.259999999999,0.5042017211914063,0.48045806884765624,0.34138012695312503,-0.11619552969932556,-0.0074768066408040235,-0.014347839355808408,-0.038995361329045096,0.0003907652599351394,0.02198523332854618,0.05861987304687499,None,None,None,None
cf2,7991.259999999999,0.47461572265625,-0.4942549743652344,0.483586669921875,-0.25663959980010986,-0.03916778564545725,-0.023143005371642964,0.002957153320382583,-0.001907465200969785,-0.021262440115607583,0.01641333007812501,None,None,None,None
cf3,7991.259999999999,-0.48059060668945314,0.4974005126953125,0.5800021362304688,0.7909731864929199,-0.011238098144796663,0.04162750244238914,-0.018197631836367016,-0.0229673576771184,0.029974540611776537,0.019997863769531166,None,None,None,None
cf1,7991.28,0.5040546569824219,0.4801491394042969,0.340695068359375,-0.23479703068733215,-0.00735321044905749,-0.015446472167630964,-0.03425292968675282,0.0007565428618219999,0.022415593013275423,0.059304931640625,None,None,None,None
cf2,7991.28,0.4738164367675781,-0.4947530822753906,0.48367736816406254,-0.2676134407520294,-0.0399642944327225,-0.02490539550726627,0.00453491210927841,0.00020283629183508414,-0.020558327475873196,0.016322631835937462,None,None,None,None
cf3,7991.28,-0.48085842895507813,0.49820861816406253,0.579719970703125,0.7909731864929199,-0.013391113280957457,0.04040527343662015,-0.014108276366883854,-0.022915610193060557,0.029159223689429824,0.020280029296875002,None,None,None,None
cf1,7991.299999999999,0.503909912109375,0.4798143005371094,0.34005035400390626,-0.23479703068733215,-0.007237243652518263,-0.016741943359770518,-0.03223571777420008,0.0011038088060623338,0.022871300995913134,0.05994964599609376,None,None,None,None
cf2,7991.299999999999,0.4731204223632813,-0.4952005615234375,0.48364306640625,-0.2676134407520294,-0.034800720215664965,-0.022373962402873534,-0.0017150878906680212,0.0021423867795109497,-0.019819431562205975,0.01635693359375001,None,None,None,None
cf3,7991.299999999999,-0.481125732421875,0.49898690795898437,0.5794219360351562,0.7412216663360596,-0.013365173340159816,0.038914489747012115,-0.014901733398789302,-0.022856059104064443,0.028356996058613936,0.02057806396484374,None,None,None,None
cf1,7991.32,0.5037936706542969,0.4794811401367188,0.339502197265625,-0.23479703068733215,-0.005812072753775521,-0.01665802001916682,-0.027407836913463535,0.001370346181541468,0.023315971350528052,0.060497802734374995,None,None,None,None
cf2,7991.32,0.4723925476074219,-0.4956455078125,0.4837016906738281,-0.2676134407520294,-0.03639373779217522,-0.022247314452639277,0.0029312133788426896,0.004249698378012919,-0.01895826896153727,0.016298309326171878,None,None,None,None
cf3,7991.32,-0.4813500671386719,0.49971255493164063,0.5790422973632813,0.7412216663360596,-0.011216735839599779,0.036282348632020914,-0.018981933593333666,-0.02283679034157436,0.027579812865382945,0.0209577026367187,None,None,None,None
cf1,7991.339999999999,0.5037107543945313,0.47914990234375,0.33892245483398437,-0.3301582932472229,-0.004145812988380129,-0.016561889648830937,-0.028987121582718548,0.0015487645670713486,0.023751325310775735,0.061077545166015657,None,None,None,None
cf2,7991.339999999999,0.4716712341308594,-0.4961263732910156,0.4838116455078125,-0.2964390218257904,-0.03606567382897848,-0.0240432739263492,0.005497741699350242,0.006402671153504616,-0.01789533560964803,0.016188354492187473,None,None,None,None
cf3,7991.339999999999,-0.48156826782226564,0.500444580078125,0.5787235107421875,0.7132171988487244,-0.010910034179944933,0.036601257325082986,-0.01593933105506428,-0.02283156716939309,0.026771832873777403,0.021276489257812448,None,None,None,None
cf1,7991.36,0.5036192321777344,0.4788000793457031,0.338422607421875,-0.3301582932472229,-0.004576110839743552,-0.017491149901961555,-0.02499237060492169,0.0017410254311691362,0.02420204746992996,0.061577392578125,None,None,None,None
cf2,7991.36,0.47101019287109375,-0.49654727172851565,0.4838752746582031,-0.2964390218257904,-0.03305206298755988,-0.02104492187454259,0.0031814575194604733,0.008380307564189178,-0.016824174264186118,0.016124725341796875,None,None,None,None
cf3,7991.36,-0.4818263854980469,0.5011649780273437,0.57838916015625,0.7132171988487244,-0.012905883788781613,0.036019897460150906,-0.016717529296513066,-0.022769935761903774,0.025972636736162263,0.021610839843750007,None,None,None,None
cf1,7991.379999999999,0.5035438232421875,0.4784869079589844,0.33789041137695314,-0.40207675099372864,-0.0037704467774349964,-0.015658569336305956,-0.026609802246723456,0.001893178002879385,0.024598830290850627,0.062109588623046885,None,None,None,None
cf2,7991.379999999999,0.47034521484375,-0.49702020263671876,0.48397106933593753,-0.30019497871398926,-0.03324890136797229,-0.023646545410714485,0.004789733886833588,0.010367361727728779,-0.01552753211510738,0.01602893066406247,None,None,None,None
cf3,7991.379999999999,-0.48202664184570315,0.5018066711425782,0.5780635986328125,0.626170814037323,-0.010012817383049117,0.03208465576248029,-0.01627807617225664,-0.022758301678157417,0.0252294029084436,0.02193640136718744,None,None,None,None
cf1,7991.4,0.503499755859375,0.47813967895507814,0.33741384887695314,-0.40207675099372864,-0.0022033691405761503,-0.01736145019493447,-0.02382812499947986,0.001966656386497919,0.02503458068950497,0.06258615112304688,None,None,None,None
cf2,7991.4,0.4697259521484375,-0.4974913024902344,0.48407595825195315,-0.30019497871398926,-0.030963134764951095,-0.02355499267526694,0.005244445800666619,0.012178327184898413,-0.014150690284843096,0.015924041748046847,None,None,None,None
cf3,7991.4,-0.48220349121093753,0.5023988037109375,0.5777378540039063,0.626170814037323,-0.008842468261525849,0.0296066284173201,-0.016287231444955565,-0.02276093285786454,0.024522899267508128,0.022262145996093663,None,None,None,None
cf1,7991.42,0.5034532470703125,0.47783129882812503,0.3369789123535156,-0.40207675099372864,-0.0023254394530761503,-0.01541900634731902,-0.021746826171400935,0.0020471861614347014,0.025414816779947596,0.0630210876464844,None,None,None,None
cf2,7991.42,0.4691983337402344,-0.4978581237792969,0.484132080078125,-0.30019497871398926,-0.026380920409578658,-0.01834106445272532,0.0028060913085324103,0.01363108676280448,-0.012992506301358842,0.015867919921874973,None,None,None,None
cf3,7991.42,-0.4824183349609375,0.5029827270507813,0.5774140625,0.626170814037323,-0.010742187499764078,0.02919616699155301,-0.016189575194960004,-0.02270889918667435,0.023826179534035187,0.02258593749999993,None,None,None,None
cf1,7991.44,0.5034337768554688,0.4775078125,0.3366011962890625,-0.4542640149593353,-0.0009735107422090105,-0.016174316406633027,-0.018885803223103462,0.0020642526346384108,0.025810176871279594,0.06339880371093753,None,None,None,None
cf2,7991.44,0.46870114135742186,-0.4982796325683594,0.4842476806640625,-0.27793097496032715,-0.024859619141214807,-0.021075439453623213,0.005780029297009615,0.014974476042220589,-0.011689509133788651,0.015752319335937515,None,None,None,None
cf3,7991.44,-0.4825926513671875,0.5035673828125,0.5770978393554688,0.5042877793312073,-0.008715820312705392,0.02923278808662792,-0.015811157226937895,-0.022716111499975544,0.023092877830033706,0.02290216064453121,None,None,None,None
cf1,7991.46,0.5034049987792969,0.47720230102539063,0.33627426147460937,-0.4542640149593353,-0.001438903808561276,-0.015275573730135961,-0.016346740722299035,0.00210324927356259,0.026177361953888457,0.06372573852539065,None,None,None,None
