Crazyflie name,QTM packet timestamp (s),x (m),y (m),z (m),yaw (째),vx (m/s),vy (m/s),vz (m/s),vx_c (m/s),vy_c (m/s),vz_c (m/s),roll_c (째),pitch_c (째),yaw_rate_c (째/s),thrust_c (PWM)
cf1,3292.66,1.0373739013671874,0.982314453125,0.02094484519958496,-0.08740156888961792,0.0003173828124983347,0.0002227783203136796,0.0007136344909672891,None,None,None,None,None,None,None
cf2,3292.66,-0.9994497680664063,-1.00747802734375,-0.006918252468109131,0.07584862411022186,7.324218749833466e-05,0.0002899169921913164,-0.0014375925064100104,None,None,None,None,None,None,None
cf1,3292.68,1.03737841796875,0.9823002319335937,0.02092803955078125,-0.08740156888961792,0.00022583007812680412,-0.0007110595703136796,-0.000840282440186282,None,None,None,None,None,None,None
cf2,3292.68,-0.99944091796875,-1.0074851684570312,-0.00688078498840332,0.07517875730991364,0.0004425048828142347,-0.0003570556640578509,0.0018733739852922486,None,None,None,None,None,None,None
cf1,3292.7,1.03734765625,0.9823424072265625,0.020932689666748047,-0.08645126223564148,-0.0015380859375038857,0.0021087646484415938,0.00023250579834006494,None,None,None,None,None,None,None
cf2,3292.7,-0.9994504394531251,-1.0074981689453124,-0.0069057512283325195,0.07517875730991364,-0.0004760742187530531,-0.0006500244140622919,-0.0012483119964611005,None,None,None,None,None,None,None
cf1,3292.72,1.0373759765625,0.9823248291015625,0.020914669036865233,-0.08645126223564148,0.0014160156250011102,-0.0008789062500022205,-0.000901031494141475,None,None,None,None,None,None,None
cf2,3292.72,-0.9994605712890625,-1.0074795532226564,-0.006855644702911377,0.06352099776268005,-0.0005065917968731959,0.0009307861328031325,0.0025053262710594106,None,None,None,None,None,None,None
cf1,3292.74,1.03737939453125,0.9823377075195313,0.020971603393554687,-0.08645126223564148,0.00017089843750166532,0.000643920898441594,0.00284671783447528,None,None,None,None,None,None,None
cf2,3292.74,-0.9994620361328125,-1.0074834594726563,-0.006827282428741455,0.06352099776268005,-7.324218749833466e-05,-0.00019531249999555912,0.0014181137084973731,None,None,None,None,None,None,None
cf1,3292.7599999999998,1.0373897705078126,0.9823474731445313,0.021030513763427735,-0.08170191198587418,0.000518798828131245,0.00048828125,0.002945518493655063,None,None,None,None,None,None,None
cf2,3292.7599999999998,-0.9994786987304688,-1.007480224609375,-0.006776383399963379,0.06352099776268005,-0.0008331298828164552,0.00016174316406229183,0.0025449514389061325,None,None,None,None,None,None,None
cf1,3292.7799999999997,1.03737841796875,0.9824259033203125,0.02116476631164551,-0.08170191198587418,-0.0005676269531301348,0.0039215087890656225,0.006712627410894837,None,None,None,None,None,None,None
cf2,3292.7799999999997,-0.9995062866210938,-1.0074747924804688,-0.006618705749511719,0.07109785825014114,-0.0013793945312491674,0.0002716064453125694,0.007883882522590155,None,None,None,None,None,None,None
cf1,3292.7999999999997,1.037385498046875,0.9825950317382812,0.0214689998626709,0.05912648141384125,0.00035400390625582866,0.008456420898441595,0.015211677551283309,None,None,None,None,None,None,None
cf2,3292.7999999999997,-0.9995823974609375,-1.0074129028320313,-0.006225210189819336,0.07109785825014114,-0.003805541992189096,0.0030944824218754165,0.019674777984637064,None,None,None,None,None,None,None
cf1,3292.8199999999997,1.0373636474609376,0.9826898803710937,0.022525215148925783,0.05912648141384125,-0.0010925292968765265,0.00474243164062958,0.05281076431279221,None,None,None,None,None,None,None
cf2,3292.8199999999997,-0.9996959838867188,-1.0074719238281251,-0.004797300815582275,-0.19158586859703064,-0.005679321289070063,-0.0029510498046918716,0.07139546871191796,None,None,None,None,None,None,None
cf1,3292.8399999999997,1.0372984619140626,0.9829290771484375,0.02449137115478516,0.05912648141384125,-0.0032592773437508326,0.011959838867197977,0.09830780029305819,None,None,None,None,None,None,None
cf2,3292.8399999999997,-0.99991064453125,-1.0075006713867187,-0.0018216856718063356,-0.19158586859703064,-0.010733032226571728,-0.0014373779296818795,0.1487807571889323,None,None,None,None,None,None,None
cf1,3292.8599999999997,1.03709814453125,0.9832478637695312,0.028033063888549804,0.7404035329818726,-0.010015869140642902,0.015939331054701862,0.17708463668839333,None,None,None,None,None,None,None
cf2,3292.8599999999997,-1.0001303100585939,-1.0074238891601563,0.003298198223114014,-0.19158586859703064,-0.010983276367203528,0.003839111328122363,0.2559941947462503,None,None,None,None,None,None,None
cf1,3292.8799999999997,1.036756591796875,0.9836251831054688,0.03323729705810547,0.7404035329818726,-0.017077636718758605,0.01886596679689429,0.26021165847802,None,None,None,None,None,None,None
cf2,3292.8799999999997,-1.0005256958007813,-1.0072384643554688,0.010934369087219238,-0.8980163335800171,-0.019769287109390403,0.009271240234384854,0.3818085432056085,None,None,None,None,None,None,None
cf1,3292.8999999999996,1.0362053222656251,0.9840505371093751,0.04019504928588867,1.749233603477478,-0.02756347656252276,0.021267700195334773,0.3478876113894764,None,None,None,None,None,None,None
cf2,3292.8999999999996,-1.0009930419921875,-1.0071372680664064,0.020970121383666992,-0.8980163335800171,-0.023367309570331445,0.005059814453127915,0.5017876148228441,None,None,None,None,None,None,None
cf1,3292.92,1.035450439453125,0.9844439697265626,0.04911069488525391,1.749233603477478,-0.037744140624182874,0.019671630858945344,0.4457822799585314,None,None,None,None,None,None,None
cf2,3292.92,-1.0016045532226563,-1.006968017578125,0.03363155746459961,-1.7070415019989014,-0.03057556152277081,0.008462524413880979,0.6330718040328122,None,None,None,None,None,None,None
cf1,3292.94,1.0344764404296876,0.9848468627929687,0.059812957763671876,1.749233603477478,-0.04869995117191538,0.020144653320327003,0.5351131439213851,None,None,None,None,None,None,None
cf2,3292.94,-1.0020135498046876,-1.0068836059570312,0.047783641815185546,-1.7070415019989014,-0.020449829101583942,0.004220581054696313,0.7076042175299404,None,None,None,None,None,None,None
cf1,3292.96,1.0333355712890626,0.9853823852539063,0.07184068298339844,2.854775905609131,-0.05704345703129913,0.02677612304690317,0.601386260986875,None,None,None,None,None,None,None
cf2,3292.96,-1.0028478393554687,-1.0065333251953126,0.06516632843017578,-1.7070415019989014,-0.04171447753909449,0.01751403808594659,0.8691343307503021,None,None,None,None,None,None,None
cf1,3292.98,1.0319544677734376,0.9859225463867187,0.08533800506591797,2.854775905609131,-0.06905517578131468,0.027008056640645123,0.6748661041265908,None,None,None,None,None,None,None
cf2,3292.98,-1.003659912109375,-1.0063115844726562,0.08427742767333984,-2.580296039581299,-0.04060363769535032,0.011087036132827558,0.9555549621590723,None,None,None,None,None,None,None
cf1,3293.0,1.030498046875,0.9865115356445313,0.09998181915283204,3.623239278793335,-0.07282104492194424,0.029449462890656225,0.7321907043463691,None,None,None,None,None,None,None
cf2,3293.0,-1.0048593139648438,-1.0059828491210938,0.10599856567382812,-2.580296039581299,-0.0599700927734971,0.016436767578135687,1.0860569000254017,None,None,None,None,None,None,None
cf1,3293.02,1.0289556884765625,0.986978759765625,0.11549183654785157,3.623239278793335,-0.07711791992194647,0.023361206054705194,0.7755008697516819,None,None,None,None,None,None,None
cf2,3293.02,-1.0053051147460939,-1.0059003295898439,0.1271037292480469,-3.3409054279327393,-0.02229003906252054,0.004125976562500555,1.055258178711898,None,None,None,None,None,None,None
cf1,3293.04,1.027326416015625,0.9874548950195313,0.1317340545654297,3.623239278793335,-0.08146362304694758,0.023806762695338105,0.8121109008796448,None,None,None,None,None,None,None
cf2,3293.04,-1.0064348754882813,-1.0057283325195312,0.15085260009765625,-3.3409054279327393,-0.05648803710942149,0.008599853515641792,1.187443542481548,None,None,None,None,None,None,None
cf1,3293.06,1.0255858154296875,0.9878344116210938,0.14878765869140625,4.2195258140563965,-0.08703002929695425,0.018975830078139015,0.8526802062996036,None,None,None,None,None,None,None
cf2,3293.06,-1.006622802734375,-1.0056203002929687,0.17316535949707032,-3.3409054279327393,-0.009396362304700753,0.005401611328131245,1.1156379699717183,None,None,None,None,None,None,None
cf1,3293.08,1.0233110961914063,0.9880159912109375,0.16586331176757813,4.2195258140563965,-0.11373596191416666,0.009078979492196868,0.85378265380937,None,None,None,None,None,None,None
cf2,3293.08,-1.007196533203125,-1.0056366577148437,0.19708148193359376,-3.81438946723938,-0.02868652343751943,-0.0008178710937508327,1.1958061218272595,None,None,None,None,None,None,None
cf1,3293.1,1.02159033203125,0.988335693359375,0.18335105895996093,4.541671276092529,-0.08603820800788863,0.015985107421887627,0.8743873596199353,None,None,None,None,None,None,None
cf2,3293.1,-1.0075185546875,-1.0055245971679687,0.22122564697265626,-3.81438946723938,-0.016101074218769707,0.005603027343753053,1.2072082519542229,None,None,None,None,None,None,None
cf1,3293.12,1.0199320068359374,0.9885595703125,0.20094259643554688,4.541671276092529,-0.08291625976570619,0.01119384765625916,0.8795768737800974,None,None,None,None,None,None,None
cf2,3293.12,-1.0077557373046875,-1.0056984252929688,0.2452694854736328,-4.065624237060547,-0.011859130859381523,-0.008691406250013323,1.202191925049921,None,None,None,None,None,None,None
cf1,3293.14,1.0183790893554687,0.9887595214843751,0.21855966186523437,4.541671276092529,-0.07764587402350599,0.009997558593764156,0.8808532714851759,None,None,None,None,None,None,None
cf2,3293.14,-1.0078662719726563,-1.0058491821289062,0.2691749267578125,-4.065624237060547,-0.005526733398447145,-0.007537841796874306,1.1952720642100725,None,None,None,None,None,None,None
cf1,3293.16,1.0168027954101562,0.9888406372070313,0.23599803161621094,4.63773250579834,-0.07881469726569952,0.004055786132815345,0.8719184875496214,None,None,None,None,None,None,None
cf2,3293.16,-1.0078802490234375,-1.0060382080078125,0.2927015991210938,-4.065624237060547,-0.0006988525390611816,-0.009451293945325892,1.1763336181651332,None,None,None,None,None,None,None
cf1,3293.18,1.0153860473632812,0.9888216552734376,0.2531510620117188,4.63773250579834,-0.070837402343813,-0.0009490966796874307,0.8576515197761717,None,None,None,None,None,None,None
cf2,3293.18,-1.0076588134765625,-1.00628857421875,0.3157034912109375,-4.148784160614014,0.011071777343761935,-0.012518310546883188,1.1500946044932316,None,None,None,None,None,None,None
cf1,3293.2,1.0141334838867189,0.9887982788085937,0.2699254455566406,4.6042704582214355,-0.06262817382817343,-0.0011688232421935368,0.8387191772468545,None,None,None,None,None,None,None
cf2,3293.2,-1.0074180908203125,-1.0065555419921874,0.33820022583007814,-4.148784160614014,0.012036132812509436,-0.013348388671886518,1.1248367309580554,None,None,None,None,None,None,None
cf1,3293.22,1.0128223876953126,0.9885789794921875,0.28624407958984377,4.6042704582214355,-0.06555480957037141,-0.010964965820319231,0.8159317016609001,None,None,None,None,None,None,None
cf2,3293.22,-1.006962158203125,-1.0069408569335938,0.35970477294921877,-4.067898273468018,0.022796630859399286,-0.019265747070335883,1.0752273559580092,None,None,None,None,None,None,None
cf1,3293.24,1.0117061767578126,0.9883570556640625,0.3020376281738281,4.6042704582214355,-0.05581054687505218,-0.01109619140626138,0.7896774291999358,None,None,None,None,None,None,None
cf2,3293.24,-1.0063902587890625,-1.007274169921875,0.3805278015136719,-4.067898273468018,0.0285949707031479,-0.016665649414075615,1.0411514282236027,None,None,None,None,None,None,None
cf1,3293.2599999999998,1.0105877075195313,0.9880327758789063,0.3172954711914063,4.466041564941406,-0.05592346191411558,-0.016213989257827556,0.7628921508796016,None,None,None,None,None,None,None
cf2,3293.2599999999998,-1.0057088623046875,-1.0076610107421875,0.40043493652343753,-4.067898273468018,0.03406982421878303,-0.01934204101564179,0.9953567504891879,None,None,None,None,None,None,None
cf1,3293.2799999999997,1.0097000122070312,0.98762060546875,0.33180587768554687,4.466041564941406,-0.04438476562504552,-0.020608520507833107,0.7255203247076895,None,None,None,None,None,None,None
cf2,3293.2799999999997,-1.0048980712890625,-1.00809033203125,0.4194847412109375,-3.8919010162353516,0.04053955078128581,-0.021466064453143457,0.9524902343758638,None,None,None,None,None,None,None
cf1,3293.2999999999997,1.008915771484375,0.9871559448242188,0.34564230346679686,4.207271575927734,-0.0392120361328431,-0.02323303222658172,0.6918212890631289,None,None,None,None,None,None,None
cf2,3293.2999999999997,-1.003990478515625,-1.0085603637695313,0.4373832397460938,-3.8919010162353516,0.045379638671913164,-0.023501586914086717,0.8949249267586286,None,None,None,None,None,None,None
cf1,3293.3199999999997,1.0086697387695314,0.9865838012695313,0.3587391357421875,4.207271575927734,-0.012301635742195758,-0.028607177734400396,0.6548416137701284,None,None,None,None,None,None,None
cf2,3293.3199999999997,-1.0029048461914063,-1.0089692993164063,0.45428091430664064,-3.663541316986084,0.05428161621098767,-0.020446777343770817,0.8448837280281114,None,None,None,None,None,None,None
cf1,3293.3399999999997,1.0081018676757814,0.9860412597656251,0.3712445678710938,4.207271575927734,-0.02839355468752609,-0.027127075195334773,0.6252716064458815,None,None,None,None,None,None,None
cf2,3293.3399999999997,-1.0018292846679688,-1.009406494140625,0.4700898132324219,-3.663541316986084,0.05377807617192205,-0.0218597412109588,0.7904449462897811,None,None,None,None,None,None,None
cf1,3293.3599999999997,1.0076494140625,0.9854833984375,0.38303063964843753,3.935891628265381,-0.022622680664084495,-0.027893066406279143,0.5893035888677237,None,None,None,None,None,None,None
cf2,3293.3599999999997,-1.0005689086914062,-1.0099337768554688,0.48491400146484376,-3.663541316986084,0.06301879882818676,-0.02636413574220908,0.7412094116217679,None,None,None,None,None,None,None
cf1,3293.3799999999997,1.0073251342773437,0.9847984008789062,0.3940501708984375,3.935891628265381,-0.016213989257833107,-0.034249877929718515,0.5509765625005008,None,None,None,None,None,None,None
cf2,3293.3799999999997,-0.9993765869140625,-1.010404296875,0.4987561340332031,-3.4350428581237793,0.059616088867241276,-0.02352600097658061,0.6921066284185978,None,None,None,None,None,None,None
cf1,3293.3999999999996,1.0071005859375,0.984154541015625,0.4043672790527344,3.661336898803711,-0.011227416992197977,-0.03219299316408894,0.5158554077153128,None,None,None,None,None,None,None
cf2,3293.3999999999996,-0.9980074462890626,-1.0109246826171876,0.5114103393554688,-3.4350428581237793,0.06845703125005884,-0.026019287109403728,0.6327102661138571,None,None,None,None,None,None,None
cf1,3293.42,1.0069835815429689,0.9834868774414063,0.41388214111328125,3.661336898803711,-0.0058502197264276076,-0.03338317871020975,0.47574310301695844,None,None,None,None,None,None,None
cf2,3293.42,-0.9965801391601563,-1.0113818359375,0.5231228637695312,-3.2343077659606934,0.07136535644375541,-0.02285766601511985,0.5856262206903396,None,None,None,None,None,None,None
cf1,3293.44,1.0073482055664063,0.9833102416992188,0.4233096923828125,3.661336898803711,0.018231201171886518,-0.008831787109383742,0.47137756347699195,None,None,None,None,None,None,None
cf2,3293.44,-0.9951427001953125,-1.0118843383789062,0.5338185424804688,-3.2343077659606934,0.07187194824225682,-0.025125122070335883,0.534783935547365,None,None,None,None,None,None,None
cf1,3293.46,1.0074678344726562,0.9825971679687501,0.4316336364746094,3.412325620651245,0.0059814453125027756,-0.03565368652346713,0.4161972045902223,None,None,None,None,None,None,None
cf2,3293.46,-0.993718994140625,-1.0123814697265625,0.543810546875,-3.2343077659606934,0.07118530273443703,-0.02485656738283644,0.4996002197270136,None,None,None,None,None,None,None
cf1,3293.48,1.0077069091796875,0.9819304809570313,0.43913018798828124,3.412325620651245,0.01195373535157728,-0.0333343505859699,0.37482757568393316,None,None,None,None,None,None,None
cf2,3293.48,-0.9921856079101563,-1.0128635864257813,0.55283740234375,-3.0673859119415283,0.07666931152350599,-0.024105834960963243,0.45134277343791246,None,None,None,None,None,None,None
cf1,3293.5,1.0080781860351562,0.9812124023437501,0.44599002075195315,3.154906749725342,0.018563842773450474,-0.03590393066409338,0.34299163818390765,None,None,None,None,None,None,None
cf2,3293.5,-0.9906306762695313,-1.0132736206054687,0.5608500366210938,-3.0673859119415283,0.07774658203132244,-0.020501708984384852,0.40063171386755325,0,0.0020174027098103565,0.039149963378906194,None,None,None,None
cf1,3293.52,1.0085091552734375,0.9804876708984375,0.45234323120117187,3.154906749725342,0.021548461914086717,-0.03623657226566289,0.3176605224612247,None,None,None,None,None,None,None
cf2,3293.52,-0.9890939331054688,-1.013751953125,0.56827734375,-2.932220220565796,0.07683715820319453,-0.023916625976593935,0.37136535644565116,0,0.0034374428724751787,0.031722656249999925,None,None,None,None
cf1,3293.54,1.0090560302734375,0.9798048095703126,0.45811331176757814,3.154906749725342,0.027343750000022204,-0.03414306640627581,0.2885040283205757,None,None,None,None,None,None,None
cf2,3293.54,-0.9875806884765626,-1.01419384765625,0.5748475952148437,-2.932220220565796,0.0756622314453803,-0.022094726562513878,0.3285125732424833,0,0.00439147814844604,0.025152404785156235,None,None,None,None
cf1,3293.56,1.0096532592773437,0.9791741943359376,0.46338336181640627,2.939093589782715,0.029861450195339215,-0.0315307617187797,0.26350250244164636,None,None,None,None,None,None,None
cf2,3293.56,-0.9859608764648438,-1.0144561157226564,0.5810771484375,-2.932220220565796,0.0809906005860132,-0.013113403320331443,0.3114776611330973,0,0.00464372298961944,0.018922851562499954,None,None,None,None
cf1,3293.58,1.0103834228515625,0.9785733032226562,0.4680627136230469,2.939093589782715,0.0365081787109699,-0.030044555664093378,0.23396759033224487,-0.0041593354387347205,0,0.03193728637695309,None,None,None,None
cf2,3293.58,-0.9844041137695313,-1.0147799682617187,0.586151611328125,-2.7680320739746094,0.07783813476569397,-0.016192626953130135,0.253723144531479,0,0.005071737846670944,0.01384838867187499,None,None,None,None
cf1,3293.6,1.01119775390625,0.9779820556640625,0.47240194702148436,2.755417823791504,0.04071655273441372,-0.029562377929714077,0.2169616699220697,-0.007143818890617802,0,0.02759805297851564,None,None,None,None
cf2,3293.6,-0.9828849487304687,-1.0150718383789064,0.5904640502929688,-2.7680320739746094,0.07595825195319786,-0.014593505859397065,0.21562194824238562,0,0.005399657912736066,0.0095359497070312,None,None,None,None
cf1,3293.62,1.0119988403320312,0.977450439453125,0.4762048950195313,2.755417823791504,0.04005432128909893,-0.02658081054689651,0.19014739990251914,-0.009424276824873148,0,0.023795104980468718,None,None,None,None
cf2,3293.62,-0.981380615234375,-1.0154193115234376,0.5940186767578125,-2.455007553100586,0.07521667480475293,-0.017373657226576168,0.17773132324234786,0,0.005837121004087118,0.005981323242187475,None,None,None,None
cf1,3293.64,1.0128750610351562,0.9769022827148438,0.4795919189453125,2.755417823791504,0.04381103515628913,-0.027407836914086717,0.16935119628921494,-0.01151512174277063,0,0.0204080810546875,None,None,None,None
cf2,3293.64,-0.9799017333984376,-1.0156698608398438,0.596841064453125,-2.455007553100586,0.07394409179694092,-0.012527465820322561,0.14111938476575392,0,0.006046285202294359,0.0031589355468749636,None,None,None,None
cf1,3293.66,1.013775146484375,0.9764262084960937,0.4826578369140625,2.565412759780884,0.04500427246097657,-0.02380371093752498,0.15329589843763933,-0.013422329192870303,0,0.0173421630859375,None,None,None,None
cf2,3293.66,-0.9784894409179687,-1.0159337768554688,0.5989510498046875,-2.455007553100586,0.07061462402350488,-0.0131958007812636,0.10549926757822006,0,0.006291174587685549,0.0010489501953124813,None,None,None,None
cf1,3293.68,1.014665771484375,0.9759358520507813,0.48514495849609374,2.565412759780884,0.04453125000004219,-0.024517822265646232,0.12435607910167498,-0.01508855380919082,0,0.014855041503906263,None,None,None,None
cf2,3293.68,-0.9770455932617188,-1.01609765625,0.6002781372070313,-2.0475058555603027,0.07219238281256272,-0.008193969726562847,0.06635437011724905,0,0.0063297052854388,-0.00027813720703129263,None,None,None,None
cf1,3293.7,1.0155658569335937,0.9755379638671875,0.48726275634765626,2.565412759780884,0.04500427246097657,-0.019894409179706304,0.10588989257822229,-0.016671217610443264,0,0.012737243652343744,None,None,None,None
cf2,3293.7,-0.9756922607421875,-1.0163117065429688,0.601248291015625,-2.0475058555603027,0.06766662597662614,-0.010702514648451586,0.04850769042973295,0,0.006484815975989152,-0.0012482910156250693,None,None,None,None
cf1,3293.72,1.0164252319335938,0.975101318359375,0.4888095703125,2.282283067703247,0.04296875000004441,-0.021832275390646232,0.07734069824225738,-0.01803412698596056,0,0.011190429687500003,None,None,None,None
cf2,3293.72,-0.9743287963867188,-1.0163992919921876,0.6015292358398437,-1.566463828086853,0.06817321777349933,-0.00437927246094548,0.0140472412109477,0,0.006410907879455492,-0.0015292358398437678,None,None,None,None
cf1,3293.74,1.0172976684570312,0.9747792358398437,0.4898974304199219,2.282283067703247,0.043621826171908726,-0.01610412597657728,0.054393005371144505,-0.019385254624489045,0,0.010102569580078102,None,None,None,None
cf2,3293.74,-0.9730777587890626,-1.0165672607421876,0.6014014282226563,-1.566463828086853,0.06255187988286752,-0.008398437500008881,-0.006390380859378192,0,0.00650543768164746,-0.0014014282226563202,None,None,None,None
cf1,3293.7599999999998,1.0181156616210938,0.9744521484375,0.49061007690429687,1.876540184020996,0.040899658203167884,-0.016354370117197977,0.035632324218780806,-0.02056476586714746,0,0.009389923095703134,None,None,None,None
cf2,3293.7599999999998,-0.9718068237304688,-1.0166426391601562,0.6008764038085938,-1.566463828086853,0.06354675292974628,-0.003768920898431602,-0.02625122070315123,0,0.0064420543184438885,-0.0008764038085937731,None,None,None,None
cf1,3293.7799999999997,1.018909423828125,0.9741536865234375,0.49078070068359375,1.876540184020996,0.039688110351601705,-0.014923095703142347,0.008531188964852042,-0.02165952093774204,0,0.009219299316406249,None,None,None,None
cf2,3293.7799999999997,-0.9706511840820312,-1.0166957397460938,0.600143310546875,-1.0652269124984741,0.05778198242193093,-0.0026550292968854083,-0.03665466308597212,0,0.006366742097090942,-0.00014331054687499734,None,None,None,None
cf1,3293.7999999999997,1.019630126953125,0.9739254760742188,0.490636474609375,1.876540184020996,0.036035156250024424,-0.01141052246094659,-0.007211303710944925,-0.022628059400636467,0,0.009363525390625016,None,None,None,None
cf2,3293.7999999999997,-0.9695321044921875,-1.0167105712890625,0.5990291137695313,-1.0652269124984741,0.055953979492235725,-0.0007415771484338224,-0.055709838867235725,0,0.006242363589393358,0.0009708862304687038,None,None,None,None
cf1,3293.8199999999997,1.0202366943359376,0.97372314453125,0.4902559814453125,1.3825528621673584,0.030328369140658444,-0.010116577148448255,-0.01902465820314068,-0.023409134833876178,0,0.009744018554687484,None,None,None,None
cf2,3293.8199999999997,-0.9684561767578125,-1.0167330932617187,0.59788037109375,-1.0652269124984741,0.05379638671880079,-0.0011260986328097938,-0.05743713378911447,0,0.006143942871014362,0.0021196289062499485,None,None,None,None
cf1,3293.8399999999997,1.0208198852539063,0.9734987182617187,0.48936770629882814,0.8821637630462646,0.02915954589846491,-0.011221313476571728,-0.0444137573242591,-0.02412505300735705,0,0.010632293701171858,None,None,None,None
cf2,3293.8399999999997,-0.9674314575195313,-1.0167164916992188,0.59650146484375,-0.594374418258667,0.05123596191410559,0.0008300781249922284,-0.06894531250006439,0,0.005997905243878822,0.0034985351562499822,None,None,None,None
cf1,3293.8599999999997,1.0212562866210937,0.9733199462890625,0.48833160400390624,0.8821637630462646,0.021820068359388184,-0.008938598632820895,-0.051805114746142286,-0.024643307141115026,0,0.011668395996093761,None,None,None,None
cf2,3293.8599999999997,-0.9664654541015625,-1.0166840209960937,0.5951350708007812,-0.1802985817193985,0.048300170898484894,0.0016235351562602696,-0.06831970214850154,0,0.005841784091358253,0.00486492919921877,None,None,None,None
cf1,3293.8799999999997,1.0216535034179688,0.9731726074218751,0.4871269226074219,0.8821637630462646,0.019860839843773036,-0.007366943359378192,-0.06023406982427131,-0.025111986066405568,0,0.012873077392578092,None,None,None,None
cf2,3293.8799999999997,-0.9655717163085937,-1.0165914916992187,0.5937460327148437,-0.1802985817193985,0.04468688964847823,0.004626464843753053,-0.0694519042969376,0,0.005610491882068911,0.006253967285156259,None,None,None,None
cf1,3293.8999999999996,1.0218909912109375,0.9730172119140625,0.48563275146484375,0.40091225504875183,0.011874389648447146,-0.00776977539063291,-0.07470855712897595,-0.025362161472716426,0,0.014367248535156252,None,None,None,None
cf2,3293.8999999999996,-0.9647144165039063,-1.016484130859375,0.5924112548828125,-0.1802985817193985,0.042864990234409275,0.005368041992186876,-0.06673889160161947,0,0.005369084600745485,0.007588745117187434,None,None,None,None
cf1,3293.92,1.0221340942382813,0.9729369506835938,0.4839460754394531,0.40091225504875183,0.012155151366922712,-0.004013061523351458,-0.08433380126769077,-0.025645967233921662,0,0.016053924560546884,None,None,None,None
cf2,3293.92,-0.9638980102539063,-1.01634814453125,0.591052978515625,0.1623261272907257,0.0408203124991096,0.00679931640609901,-0.06791381835789508,0,0.005097530345834258,0.008947021484374984,None,None,None,None
cf1,3293.94,1.0221690673828125,0.9728670043945312,0.4823453369140625,0.40091225504875183,0.0017486572265650673,-0.0034973144531301346,-0.0800369262696033,-0.02566413833063432,0,0.017654663085937494,None,None,None,None
cf2,3293.94,-0.9631812133789063,-1.0161997680664063,0.5898052978515625,0.1623261272907257,0.03583984375003442,0.007418823242195757,-0.062384033203178986,0,0.004824042282706076,0.010194702148437429,None,None,None,None
cf1,3293.96,1.0221665649414062,0.9727836303710937,0.48053555297851563,-0.040254659950733185,-0.00012512207031590005,-0.004168701171878747,-0.09048919677742587,-0.025628737685528414,0,0.019464447021484366,None,None,None,None
cf2,3293.96,-0.9624456787109376,-1.0160068359375,0.5887186889648438,0.1623261272907257,0.03677673339846935,0.009646606445321452,-0.05433044433598656,0,0.004492560492624075,0.011281311035156172,None,None,None,None
cf1,3293.98,1.022085205078125,0.9727804565429687,0.4787257080078125,-0.040254659950733185,-0.004067993164062292,-0.00015869140624916734,-0.090492248535239,-0.0255223373680602,0,0.0212742919921875,None,None,None,None
cf2,3293.98,-0.9618323364257813,-1.0158358764648439,0.5876790771484375,0.4454629719257355,0.0306671142578431,0.008547973632818676,-0.05198059082036364,0,0.004208042018758409,0.012320922851562499,None,None,None,None
cf1,3294.0,1.0218705444335938,0.9727403564453125,0.47690701293945315,-0.3877832591533661,-0.010733032226571728,-0.0020050048828120144,-0.09093475341805046,-0.025226814102834207,0,0.023092987060546855,None,None,None,None
cf2,3294.0,-0.9612055053710937,-1.01562939453125,0.5867525024414063,0.4454629719257355,0.03134155273440484,0.010324096679701864,-0.04632873535160059,0,0.003878649790331997,0.013247497558593668,None,None,None,None
cf1,3294.02,1.0216140747070312,0.9727137451171876,0.47501373291015625,-0.3877832591533661,-0.012823486328140126,-0.0013305664062502776,-0.09466400146493087,-0.024877468870410712,0,0.02498626708984375,None,None,None,None
cf2,3294.02,-0.9606533813476563,-1.0154057006835937,0.5859939575195313,0.6662861108779907,0.0276062011718954,0.011184692382825337,-0.03792724609378414,0,0.0035358176327690695,0.014006042480468661,None,None,None,None
cf1,3294.04,1.0212340698242188,0.97269482421875,0.4732769470214844,-0.3877832591533661,-0.019000244140638462,-0.0009460449218798572,-0.08683929443367282,-0.024358911316722773,0,0.026723052978515627,None,None,None,None
cf2,3294.04,-0.9601588745117188,-1.0151529541015625,0.5852915649414062,0.6662861108779907,0.024725341796899843,0.01263732910157284,-0.035119628906286914,0,0.003161400965024725,0.01470843505859376,None,None,None,None
cf1,3294.06,1.0207632446289063,0.9726383666992188,0.47158892822265625,-0.6503050923347473,-0.023541259765646232,-0.002822875976562847,-0.08440093994148316,-0.02368633372074655,0,0.028411071777343755,None,None,None,None
cf2,3294.06,-0.95965478515625,-1.0148671264648437,0.5846533203125001,0.6662861108779907,0.025204467773460467,0.014291381835953252,-0.031912231445336996,0,0.0027466960066572363,0.01534667968749992,None,None,None,None
cf1,3294.08,1.0202234497070313,0.9727096557617188,0.46991094970703123,-0.6503050923347473,-0.026989746093777477,0.0035644531250022204,-0.08389892578132688,-0.02295204445024825,0,0.030089050292968766,None,None,None,None
cf2,3294.08,-0.9591849365234375,-1.014611328125,0.584183349609375,0.8397005200386047,0.023492431640647342,0.012789916992195758,-0.023498535156273592,0,0.0023799718679500155,0.015816650390624964,None,None,None,None
cf1,3294.1,1.0196490478515625,0.9726253051757813,0.4683348083496094,-0.8218207359313965,-0.0287200927734638,-0.004217529296877636,-0.07880706787116394,-0.022070633459566277,0,0.03166519165039061,None,None,None,None
cf2,3294.1,-0.9587683715820313,-1.0143663330078125,0.5838266601562501,0.8397005200386047,0.020828247070328113,0.012249755859383742,-0.0178344726562636,0,0.0020343153325343257,0.016173339843749912,None,None,None,None
cf1,3294.12,1.0189735717773438,0.9726182250976563,0.46680630493164066,-0.8218207359313965,-0.033773803710965465,-0.00035400390625027754,-0.07642517089850599,-0.021034802747517425,0,0.03319369506835934,None,None,None,None
cf2,3294.12,-0.95841552734375,-1.0140885009765626,0.5835623168945313,0.9347136616706848,0.017642211914081166,0.013891601562511657,-0.013217163085949921,0,0.0016500525892111661,0.01643768310546867,None,None,None,None
cf1,3294.14,1.0182640380859376,0.972654052734375,0.4654795837402344,-0.8218207359313965,-0.035476684570344766,0.0017913818359377083,-0.06633605957037307,-0.019916810501081076,0,0.034520416259765596,None,None,None,None
cf2,3294.14,-0.958080810546875,-1.0138348388671876,0.5834092407226562,0.9347136616706848,0.016735839843766375,0.012683105468758605,-0.007653808593761935,0,0.0013022574924789426,0.01659075927734377,None,None,None,None
cf1,3294.16,1.0174910888671875,0.9725789184570313,0.4641366882324219,-0.888786792755127,-0.038647460937537195,-0.003756713867190206,-0.0671447753906873,-0.018572851952493436,0,0.03586331176757812,None,None,None,None
cf2,3294.16,-0.9577449951171875,-1.0135469360351563,0.5832890014648437,0.9347136616706848,0.016790771484391516,0.01439514160157728,-0.0060119628906284694,0,0.0009119778697035968,0.01671099853515623,None,None,None,None
cf1,3294.18,1.0166680908203125,0.9725498046875001,0.4629748229980469,-0.888786792755127,-0.04114990234378858,-0.0014556884765606266,-0.05809326171880301,-0.017080864588019194,0,0.037025177001953125,None,None,None,None
cf2,3294.18,-0.9574324340820313,-1.0132733764648438,0.5831721801757812,1.0011694431304932,0.015628051757824227,0.013677978515637351,-0.005841064453132355,0,0.0005445313830001766,0.01682781982421877,None,None,None,None
cf1,3294.2,1.0158745727539062,0.9725656127929688,0.46185693359375,-0.8662524819374084,-0.039675903320349204,0.0007904052734382632,-0.055894470214893674,-0.015572788020485843,0,0.03814306640624998,None,None,None,None
cf2,3294.2,-0.9571657104492187,-1.0129739990234374,0.583102294921875,1.0011694431304932,0.013336181640639572,0.014968872070333664,-0.003494262695311459,0,0.00014617726500656456,0.016897705078124936,None,None,None,None
cf1,3294.22,1.014984619140625,0.9725939331054688,0.4608645935058594,-0.8662524819374084,-0.044497680664097816,0.0014160156250011102,-0.04961700439457611,-0.013766400855604929,0,0.0391354064941406,None,None,None,None
cf2,3294.22,-0.956922119140625,-1.01269677734375,0.583109375,1.045985460281372,0.012179565429698534,0.013861083984380412,0.00035400390625027754,0,0,0.016890624999999937,None,None,None,None
cf1,3294.24,1.0140903930664062,0.9725493774414062,0.4599356384277344,-0.8662524819374084,-0.044711303710983225,-0.002227783203131245,-0.04644775390629302,-0.011769434782472735,0,0.04006436157226562,None,None,None,None
cf2,3294.24,-0.9567171630859376,-1.0124403076171875,0.583125244140625,1.045985460281372,0.010247802734379302,0.012823486328140126,0.0007934570312513878,0,0,0.016874755859374924,None,None,None,None
cf1,3294.2599999999998,1.0132021484375,0.9725343017578125,0.4590787963867188,-0.791799008846283,-0.044412231445352536,-0.0007537841796863204,-0.04284210205081917,-0.009655661465584104,0,0.04092120361328122,None,None,None,None
cf2,3294.2599999999998,-0.9565384521484375,-1.0122250366210939,0.5831989135742187,1.045985460281372,0.008935546875013323,0.010763549804691871,0.0036834716796863205,0,0,0.016801086425781264,None,None,None,None
cf1,3294.2799999999997,1.012271240234375,0.9724985961914062,0.4584637145996094,-0.791799008846283,-0.04654541015629358,-0.0017852783203170103,-0.03075408935549772,-0.007277347726102512,0,0.041536285400390616,None,None,None,None
cf2,3294.2799999999997,-0.956362060546875,-1.0120083618164062,0.5832694091796875,1.024625539779663,0.008819580078131245,0.010833740234393735,0.003524780273442704,0,0,0.016730590820312474,None,None,None,None
cf1,3294.2999999999997,1.0113046264648438,0.9725062255859375,0.45771237182617186,-0.6569374799728394,-0.04833068847660504,0.00038146972656284694,-0.03756713867191039,-0.004677416031936696,0,0.04228762817382814,None,None,None,None
cf2,3294.2999999999997,-0.9562042846679688,-1.011763916015625,0.5833399047851563,1.024625539779663,0.00788879394531701,0.012222290039065623,0.003524780273442704,0,0,0.016660095214843684,None,None,None,None
cf1,3294.3199999999997,1.010384033203125,0.972434326171875,0.4571275329589844,-0.6569374799728394,-0.046029663085975454,-0.0035949707031279142,-0.029241943359399843,-0.002081825518552588,0,0.042872467041015605,None,None,None,None
cf2,3294.3199999999997,-0.9560423583984375,-1.0115449829101564,0.583450927734375,0.9653559327125549,0.008096313476570619,0.010946655273446034,0.005551147460941039,0,0,0.016549072265624964,None,None,None,None
cf1,3294.3399999999997,1.0094722900390625,0.9723975219726563,0.45653375244140626,-0.6569374799728394,-0.04558715820317232,-0.0018402099609365979,-0.029689025878933763,0,0,0.04346624755859374,None,None,None,None
cf2,3294.3399999999997,-0.9559100952148438,-1.011328369140625,0.5835260009765625,0.9653559327125549,0.006613159179691871,0.01083068847658061,0.0037536621093770817,0,0,0.01647399902343749,None,None,None,None
cf1,3294.3599999999997,1.0086103515625,0.9723943481445313,0.4560620422363281,-0.5054071545600891,-0.04309692382816233,-0.00015869140624916734,-0.023585510253928212,0,0,0.043937957763671875,None,None,None,None
cf2,3294.3599999999997,-0.9557578735351563,-1.011094482421875,0.583599853515625,0.9653559327125549,0.007611083984383743,0.011694335937506106,0.003692626953131245,0,0,0.016400146484374933,None,None,None,None
cf1,3294.3799999999997,1.007729736328125,0.9723606567382813,0.45554498291015627,-0.5054071545600891,-0.04403076171878969,-0.0016845703125005552,-0.025852966308616197,0,0,0.04445501708984373,None,None,None,None
cf2,3294.3799999999997,-0.9556488647460938,-1.0109013671875,0.5836787719726563,0.8758213520050049,0.005450439453130135,0.009655761718760824,0.003945922851565068,0,0,0.016321228027343704,None,None,None,None
cf1,3294.3999999999996,1.0068239135742187,0.9722969360351563,0.4551748046875,-0.3586093485355377,-0.045291137695354755,-0.003186035156252498,-0.018508911132830888,0,0,0.04482519531250001,None,None,None,None
cf2,3294.3999999999996,-0.955562744140625,-1.0107201538085937,0.583766357421875,0.8758213520050049,0.004306030273441594,0.009060668945323671,0.004379272460939929,0,0,0.016233642578124985,None,None,None,None
cf1,3294.42,1.0060233764648439,0.9722760620117188,0.4547286376953125,-0.3586093485355377,-0.0400268554678707,-0.0010437011718539058,-0.022308349608886502,0,0,0.04527136230468748,None,None,None,None
cf2,3294.42,-0.9555120239257813,-1.0105289306640626,0.5838464965820312,0.7548081874847412,0.002536010742132544,0.009561157226347672,0.004006958007725348,0,0,0.01615350341796873,None,None,None,None
cf1,3294.44,1.0052234497070314,0.9722232666015626,0.45443927001953127,-0.3586093485355377,-0.03999633789066066,-0.0026397705078142347,-0.014468383789075615,0,0,0.04556072998046873,None,None,None,None
cf2,3294.44,-0.9554370117187501,-1.0103678588867189,0.5839202270507813,0.7548081874847412,0.0037506103515639573,0.008053588867192426,0.003686523437504996,0,0,0.016079772949218696,None,None,None,None
cf1,3294.46,1.0044476928710937,0.9721945190429687,0.4542173767089844,-0.20810116827487946,-0.038787841796918715,-0.0014373779296929818,-0.011094665527354818,0,0,0.04578262329101562,None,None,None,None
cf2,3294.46,-0.95538818359375,-1.0102171630859376,0.583949951171875,0.7548081874847412,0.002441406250005551,0.007534790039072284,0.0014862060546863205,0,0,0.016050048828124996,None,None,None,None
cf1,3294.48,1.0037245483398438,0.97209423828125,0.4539627380371094,-0.20810116827487946,-0.0361572265625272,-0.005014038085942149,-0.01273193359376027,0,0,0.0460372619628906,None,None,None,None
cf2,3294.48,-0.9553476562500001,-1.0100828857421875,0.58400439453125,0.5861369967460632,0.002026367187498335,0.006713867187508327,0.002722167968751943,0,0,0.015995605468750007,None,None,None,None
cf1,3294.5,1.0030107421875,0.9720330200195313,0.45359292602539064,-0.06191342696547508,-0.03569030761721907,-0.003060913085936598,-0.018490600585954916,0,0,0.04640707397460936,None,None,None,None
cf2,3294.5,-0.9553282470703125,-1.0099996337890624,0.5840343627929687,0.5861369967460632,0.0009704589843793021,0.004162597656258049,0.0014984130859388184,0,0,0.015965637207031258,None,None,None,None
cf1,3294.52,1.0023629150390625,0.9719554443359375,0.4534180603027344,-0.06191342696547508,-0.032391357421908726,-0.0038787841796929816,-0.008743286132819786,0,0,0.046581939697265595,None,None,None,None
cf2,3294.52,-0.9553075561523438,-1.00989501953125,0.5840433959960938,0.42399704456329346,0.0010345458984382632,0.00523071289062958,0.00045166015625360825,0,0,0.015956604003906194,None,None,None,None
cf1,3294.54,1.00174951171875,0.9718996582031251,0.45331042480468753,-0.06191342696547508,-0.030670166015650674,-0.0027893066406240287,-0.005381774902348711,0,0,0.04668957519531247,None,None,None,None
cf2,3294.54,-0.9552965698242187,-1.00977587890625,0.5840313720703125,0.42399704456329346,0.0005493164062513878,0.005957031249997779,-0.000601196289063402,0,0,0.01596862792968745,None,None,None,None
cf1,3294.56,1.0011889038085937,0.9717855224609375,0.4531280517578125,0.07959394156932831,-0.02803039550784199,-0.005706787109382633,-0.00911865234375916,0,0,0.04687194824218749,None,None,None,None
cf2,3294.56,-0.9552672729492188,-1.0096438598632813,0.5840003662109375,0.42399704456329346,0.00146484375,0.006600952148444925,-0.0015502929687508326,0,0,0.01599963378906244,None,None,None,None
cf1,3294.58,1.0006207885742189,0.971703857421875,0.4530893249511719,0.07959394156932831,-0.028405761718767485,-0.004083251953127915,-0.0019363403320333664,0,0,0.04691067504882812,None,None,None,None
cf2,3294.58,-0.9552408447265626,-1.0095283813476563,0.5840174560546875,0.28721871972084045,0.001321411132810904,0.005773925781254718,0.0008544921874972244,0,0,0.01598254394531251,None,None,None,None
cf1,3294.6,1.0001056518554687,0.9716466674804688,0.453056640625,0.16867080330848694,-0.02575683593753053,-0.00285949707031479,-0.001634216308595103,0,0,0.04694335937499999,None,None,None,None
cf2,3294.6,-0.9552222900390626,-1.0094215087890626,0.5839591674804687,0.28721871972084045,0.0009277343750011102,0.0053436279296929816,-0.0029144287109399286,0,0,0.016040832519531256,None,None,None,None
cf1,3294.62,0.9995973510742188,0.9715945434570312,0.45304580688476564,0.16867080330848694,-0.025415039062521648,-0.0026062011718809676,-0.0005416870117185765,0,0,0.046954193115234355,None,None,None,None
cf2,3294.62,-0.9552086181640626,-1.0093074340820312,0.5838882446289063,0.20231516659259796,0.0006835937500011102,0.00570373535157506,-0.0035461425781234735,0,0,0.01611175537109366,None,None,None,None
cf1,3294.64,0.999213623046875,0.9714888305664062,0.45292938232421875,0.16867080330848694,-0.01918640136720575,-0.005285644531254718,-0.0058212280273498215,0,0,0.047070617675781246,None,None,None,None
cf2,3294.64,-0.9551989135742188,-1.0092013549804688,0.5838366088867187,0.20231516659259796,0.0004852294921868755,0.005303955078122364,-0.0025817871093815224,0,0,0.016163391113281245,None,None,None,None
cf1,3294.66,0.9988001098632813,0.9713997192382813,0.4528858337402344,0.24777331948280334,-0.020675659179705194,-0.004455566406251388,-0.0021774291992202417,0,0,0.04711416625976561,None,None,None,None
cf2,3294.66,-0.9551716308593751,-1.009052001953125,0.5837697143554688,0.20231516659259796,0.001364135742189096,0.007467651367194647,-0.003344726562501665,0,0,0.016230285644531217,None,None,None,None
cf1,3294.68,0.9983535766601562,0.9713046264648437,0.45286193847656253,0.24777331948280334,-0.022326660156272483,-0.004754638671882078,-0.0011947631835939928,0,0,0.04713806152343747,None,None,None,None
cf2,3294.68,-0.9551126098632813,-1.0089151000976562,0.5837273559570313,0.04112048074603081,0.0029510498046918716,0.006845092773450476,-0.0021179199218754165,0,0,0.016272644042968687,None,None,None,None
cf1,3294.7,0.9979832763671875,0.9712108764648437,0.4528158569335938,0.2873433530330658,-0.018515014648451587,-0.004687500000004441,-0.0023040771484399286,0,0,0.047184143066406226,None,None,None,None
cf2,3294.7,-0.9550487060546875,-1.008790283203125,0.5836376342773437,0.04112048074603081,0.0031951904296918716,0.006240844726562847,-0.004486083984382633,0,0,0.016362365722656258,None,None,None,None
cf1,3294.72,0.9976769409179688,0.9711349487304688,0.45272351074218753,0.2873433530330658,-0.01531677246095214,-0.0037963867187497226,-0.0046173095703164555,0,0,0.04727648925781247,None,None,None,None
cf2,3294.72,-0.9549864501953125,-1.0086417236328125,0.5835589599609375,-0.07923015207052231,0.0031127929687541633,0.007427978515635131,-0.0039337158203125696,0,0,0.016441040039062438,None,None,None,None
cf1,3294.74,0.9973795166015625,0.9710568237304688,0.4527412109375,0.2873433530330658,-0.014871215820324782,-0.003906250000005551,0.0008850097656256939,0,0,0.04725878906249997,None,None,None,None
cf2,3294.74,-0.95492138671875,-1.0085090942382813,0.5834855346679687,-0.07923015207052231,0.0032531738281245835,0.006631469726565068,-0.0036712646484449245,0,0,0.01651446533203127,None,None,None,None
cf1,3294.7599999999998,0.9970764770507813,0.9710076904296875,0.4527534790039063,0.2839704751968384,-0.015151977539076725,-0.0024566650390656225,0.0006134033203131245,0,0,0.04724652099609372,None,None,None,None
cf2,3294.7599999999998,-0.954818359375,-1.0083587646484375,0.583384033203125,-0.07923015207052231,0.005151367187504996,0.007516479492193537,-0.005075073242187986,0,0,0.016615966796874937,None,None,None,None
cf1,3294.7799999999997,0.9968111572265625,0.9709249877929688,0.4527968444824219,0.2839704751968384,-0.01326599121094881,-0.004135131835939929,0.002168273925783644,0,0,0.04720315551757809,None,None,None,None
cf2,3294.7799999999997,-0.9546962890625,-1.0082144165039062,0.58329541015625,-0.20111562311649323,0.006103515625005551,0.007217407226573949,-0.004431152343757494,0,0,0.016704589843750006,None,None,None,None
cf1,3294.7999999999997,0.9965475463867187,0.9708324584960938,0.45288555908203126,0.26072630286216736,-0.013180541992203528,-0.004626464843753053,0.0044357299804716295,0,0,0.047114440917968736,None,None,None,None
cf2,3294.7999999999997,-0.9545630493164062,-1.0080833740234376,0.5832183837890625,-0.20111562311649323,0.006661987304696313,0.006552124023434932,-0.0038513183593748613,0,0,0.016781616210937433,None,None,None,None
cf1,3294.8199999999997,0.9962941284179687,0.9707431640625,0.452974853515625,0.26072630286216736,-0.012670898437511657,-0.004464721679690762,0.004464721679690762,0,0,0.047025146484375,None,None,None,None
cf2,3294.8199999999997,-0.95443603515625,-1.0079471435546876,0.5831371459960938,-0.27308958768844604,0.0063507080078186754,0.006811523437506106,-0.004061889648441594,0,0,0.01686285400390619,None,None,None,None
cf1,3294.8399999999997,0.99608203125,0.9706631469726563,0.45307058715820314,0.26072630286216736,-0.010604858398442704,-0.004000854492190206,0.004786682128911558,0,0,0.04692941284179686,None,None,None,None
cf2,3294.8399999999997,-0.954316650390625,-1.0078109741210937,0.5830460205078125,-0.27308958768844604,0.0059692382812558285,0.006808471679704084,-0.004556274414067843,0,0,0.016953979492187465,None,None,None,None
cf1,3294.8599999999997,0.9958918457031251,0.9705949096679688,0.4531842956542969,0.20298299193382263,-0.009509277343758605,-0.003411865234379302,0.005685424804693537,0,0,0.04681570434570309,None,None,None,None
cf2,3294.8599999999997,-0.9541786499023438,-1.0076765747070313,0.5829884643554688,-0.27308958768844604,0.006900024414064512,0.006719970703123473,-0.0028778076171879856,0,0,0.017011535644531173,None,None,None,None
cf1,3294.8799999999997,0.9957021484375,0.9704691772460937,0.45331866455078124,0.20298299193382263,-0.00948486328125916,-0.0062866210937597145,0.0067184448242224625,0,0,0.046681335449218764,None,None,None,None
cf2,3294.8799999999997,-0.9540321655273438,-1.0075145874023437,0.5829078979492187,-0.3167398273944855,0.007324218750005551,0.008099365234389293,-0.004028320312508327,0,0,0.017092102050781266,None,None,None,None
cf1,3294.8999999999996,0.9954676513671875,0.9703875732421875,0.453533935546875,0.15782009065151215,-0.011724853515637351,-0.0040802001953147895,0.010763549804697422,None,None,None,None,None,None,None
cf2,3294.8999999999996,-0.9538757934570312,-1.007360107421875,0.5828333129882812,-0.3167398273944855,0.007818603515637351,0.007723999023441594,-0.003729248046877637,None,None,None,0,30,-143,35355
cf1,3294.92,0.995265869140625,0.9702833251953126,0.45371026611328125,0.15782009065151215,-0.010089111327906287,-0.005212402343632317,0.00881652832012043,None,None,None,None,None,None,None
cf2,3294.92,-0.9537008666992187,-1.0072073364257812,0.5827557983398438,-0.34573712944984436,0.008746337890434042,0.007638549804522632,-0.003875732421786182,None,None,None,0,30,0,35347
cf1,3294.94,0.995054443359375,0.9702107543945313,0.45393881225585936,0.15782009065151215,-0.010571289062509436,-0.003628540039066733,0.011427307128915999,None,None,None,None,None,None,None
cf2,3294.94,-0.953408935546875,-1.0070219116210937,0.5826156616210938,-0.34573712944984436,0.014596557617199088,0.009271240234384854,-0.007006835937507216,None,None,None,1,30,0,35389
cf1,3294.96,0.9948521728515625,0.970093017578125,0.45405706787109373,0.209542378783226,-0.01011352539063513,-0.005886840820318121,0.005912780761724128,None,None,None,None,None,None,None
cf2,3294.96,-0.9527898559570313,-1.0068314208984375,0.5825378417968751,-0.34573712944984436,0.03095397949221574,0.009524536132818676,-0.0038909912109399286,None,None,None,1,30,0,35327
cf1,3294.98,0.994651123046875,0.969984375,0.45394296264648437,0.209542378783226,-0.010052490234383742,-0.005432128906256939,-0.005705261230473295,None,None,None,None,None,None,None
cf2,3294.98,-0.9515809936523437,-1.006654296875,0.5822932739257812,-0.0006084431661292911,0.06044311523443148,0.008856201171877636,-0.012228393554702973,None,None,None,1,30,0,35457
cf1,3295.0,0.9944229125976562,0.969868896484375,0.4533919372558594,0.6300799250602722,-0.01141052246094659,-0.005773925781254718,-0.027551269531273036,None,None,None,None,None,None,None
cf2,3295.0,-0.9497252197265625,-1.00654931640625,0.5818847045898438,-0.0006084431661292911,0.09278869628914334,0.005249023437508327,-0.02042846679689207,None,None,None,0,30,0,35590
cf1,3295.02,0.9941908569335938,0.9697516479492188,0.4525835266113281,0.6300799250602722,-0.011602783203134575,-0.0058624267578186754,-0.040420532226601705,None,None,None,None,None,None,None
cf2,3295.02,-0.9472116088867187,-1.006482666015625,0.5812950439453125,0.4741972088813782,0.12568054199230455,0.0033325195312547185,-0.029483032226589493,None,None,None,0,30,-1,35743
cf1,3295.04,0.9939651489257812,0.96967822265625,0.45122247314453123,0.6300799250602722,-0.011285400390636241,-0.0036712646484393734,-0.06805267333990589,None,None,None,None,None,None,None
cf2,3295.04,-0.9439432373046875,-1.0064133911132813,0.5806220092773438,0.4741972088813782,0.1634185791017083,0.0034637451171857653,-0.03365173339846824,None,None,None,0,30,-1,35820
cf1,3295.06,0.9936837158203126,0.9695666503906251,0.4494561767578125,1.0124348402023315,-0.014071655273447146,-0.005578613281253609,-0.08831481933601598,None,None,None,None,None,None,None
cf2,3295.06,-0.9397870483398437,-1.0062732543945312,0.57979052734375,0.4741972088813782,0.20780944824238007,0.007006835937512767,-0.04157409667972407,None,None,None,0,30,-2,35963
cf1,3295.08,0.993469970703125,0.9694335327148438,0.4469846496582031,1.0124348402023315,-0.010687255859385963,-0.006655883789070063,-0.12357635498058266,None,None,None,None,None,None,None
cf2,3295.08,-0.9345029296875,-1.0061743774414063,0.5784786987304688,0.6809779405593872,0.2642059326174245,0.004943847656251388,-0.06559143066412336,None,None,None,0,30,-3,36383
cf1,3295.1,0.9931986694335938,0.9693165893554687,0.44405172729492187,1.2830779552459717,-0.01356506347657395,-0.005847167968758604,-0.1466461181641955,None,None,None,None,None,None,None
cf2,3295.1,-0.9280160522460937,-1.0060300903320312,0.5770645751953125,0.6809779405593872,0.3243438720706101,0.007214355468760825,-0.07070617675787641,None,None,None,0,30,-4,36499
cf1,3295.12,0.9928931884765625,0.9691737060546876,0.4404451904296875,1.2830779552459717,-0.0152740478515795,-0.007144165039064512,-0.1803268432618829,None,None,None,None,None,None,None
cf2,3295.12,-0.9201707153320313,-1.0059381713867188,0.5752826538085938,0.7605103850364685,0.39226684570347764,0.004595947265621808,-0.08909606933601764,None,None,None,0,30,-7,36844
cf1,3295.14,0.9926259765625001,0.969095947265625,0.4363154602050781,1.2830779552459717,-0.013360595703133466,-0.0038879394531323554,-0.20648651123065703,None,None,None,None,None,None,None
cf2,3295.14,-0.9106778564453125,-1.00581884765625,0.57308251953125,0.7605103850364685,0.47464294433637183,0.005966186523448255,-0.11000671386728901,None,None,None,0,30,-10,37243
cf1,3295.16,0.9923515014648437,0.9690079345703125,0.43173681640625,1.4550670385360718,-0.013723754882828667,-0.004400634765626249,-0.22893218994161363,None,None,None,None,None,None,None
cf2,3295.16,-0.8997880249023438,-1.005778564453125,0.5704478149414063,0.7605103850364685,0.5444915771489323,0.0020141601562513878,-0.13173522949230568,None,None,None,0,26,-13,37671
cf1,3295.18,0.991794677734375,0.9683562622070313,0.42607070922851564,1.4550670385360718,-0.027841186523461577,-0.03258361816409116,-0.2833053588869756,None,None,None,None,None,None,None
cf2,3295.18,-0.8873875732421875,-1.0057857666015626,0.567520751953125,0.9533016085624695,0.620022583008376,-0.0003601074218820777,-0.14635314941419664,None,None,None,-1,22,-17,37992
cf1,3295.2,0.9914810180664063,0.968279296875,0.4205011901855469,1.5692036151885986,-0.015682983398449365,-0.0038482666015672877,-0.2784759521486914,None,None,None,None,None,None,None
cf2,3295.2,-0.8734151611328125,-1.0057596435546876,0.5642042236328125,0.9533016085624695,0.6986206054693881,0.0013061523437508326,-0.16582641601577502,None,None,None,-1,17,-21,38406
cf1,3295.22,0.9911922607421875,0.9682069702148438,0.41470855712890625,1.5692036151885986,-0.014437866210955472,-0.0036163330078142347,-0.2896316528322948,None,None,None,None,None,None,None
cf2,3295.22,-0.857906494140625,-1.0056348266601562,0.5604373168945312,1.276064395904541,0.7754333496100776,0.006240844726573949,-0.1883453369142355,None,None,None,-1,13,-26,38885
cf1,3295.24,0.9908491821289063,0.9681190185546875,0.40861273193359376,1.5692036151885986,-0.017153930664075615,-0.0043975830078186754,-0.3047912597659016,None,None,None,None,None,None,None
cf2,3295.24,-0.8410062255859375,-1.0055145874023437,0.5564407958984375,1.276064395904541,0.8450134277351442,0.0060119628906340206,-0.1998260498048673,None,None,None,-1,9,-31,39192
cf1,3295.2599999999998,0.9905391235351563,0.9681296386718751,0.4022369384765625,1.6830768585205078,-0.015502929687513878,0.0005310058593781918,-0.31878967285185317,None,None,None,None,None,None,None
cf2,3295.2599999999998,-0.8231136474609375,-1.005533447265625,0.5531755981445312,1.276064395904541,0.8946289062508138,-0.0009429931640667327,-0.16325988769546468,None,None,None,-1,6,-36,38695
cf1,3295.2799999999997,0.9902047729492188,0.9680637817382812,0.39572351074218753,1.6830768585205078,-0.016717529296887627,-0.0032928466796952023,-0.3256713867190445,None,None,None,None,None,None,None
cf2,3295.2799999999997,-0.8028668823242188,-1.0052787475585938,0.5477675170898437,1.7401717901229858,1.0123382568368582,0.012734985351570619,-0.2704040527346202,None,None,None,-1,-1,-45,40604
cf1,3295.2999999999997,0.9898847045898438,0.9680598144531251,0.3891604919433594,1.7893311977386475,-0.016003417968766375,-0.0001983642578086836,-0.32815093994170574,None,None,None,None,None,None,None
cf2,3295.2999999999997,-0.7822623901367187,-1.0052562255859374,0.5441663818359375,1.7401717901229858,1.0302246093759393,0.001126098632820896,-0.18005676269547688,None,None,None,-2,-2,-48,39246
cf1,3295.3199999999997,0.9895178833007813,0.9680723876953126,0.38260601806640626,1.7893311977386475,-0.018341064453142347,0.0006286621093759715,-0.32772369384795436,None,None,None,None,None,None,None
cf2,3295.3199999999997,-0.75941357421875,-1.0049830932617188,0.5386205444335938,2.584059000015259,1.1424407958994751,0.01365661621094548,-0.2772918701174378,None,None,None,-2,-8,-59,41000
cf1,3295.3399999999997,0.9888385009765626,0.9681018676757813,0.3760581665039063,1.7893311977386475,-0.03396911621096657,0.0014739990234393734,-0.327392578125297,None,None,None,None,None,None,None
cf2,3295.3399999999997,-0.7364293823242187,-1.0046902465820313,0.5346437377929688,2.584059000015259,1.1492095947276086,0.014642333984384854,-0.19884033203142792,None,None,None,-2,-9,-62,39849
cf1,3295.3599999999997,0.9884003295898438,0.9680990600585938,0.3695664978027344,1.9037845134735107,-0.02190856933595769,-0.00014038085937597143,-0.3245834350588904,None,None,None,None,None,None,None
cf2,3295.3599999999997,-0.7122034301757812,-1.0043946533203125,0.5302149047851563,2.584059000015259,1.2112976074229755,0.014779663085953252,-0.22144165039082608,None,None,None,-2,-12,-69,40355
cf1,3295.3799999999997,0.9880587158203126,0.9681552124023438,0.36319866943359375,1.9037845134735107,-0.01708068847657728,0.0028076171875027756,-0.31839141845732094,None,None,None,None,None,None,None
cf2,3295.3799999999997,-0.6873049926757813,-1.0040281372070312,0.5259253540039063,3.8768701553344727,1.2449218750011313,0.018325805664082276,-0.21447753906269706,None,None,None,-4,-14,-73,40377
cf1,3295.3999999999996,0.987759033203125,0.96822216796875,0.35700039672851563,2.011368751525879,-0.014984130859393735,0.00334777832031479,-0.30991363525418747,None,None,None,None,None,None,None
cf2,3295.3999999999996,-0.6618912353515625,-1.0036049194335939,0.5217803955078125,3.8768701553344727,1.2706878662120957,0.021160888671886518,-0.20724792480487617,None,None,None,-4,-15,-76,40391
cf1,3295.42,0.9873670654296876,0.9682257080078125,0.35109567260742186,2.011368751525879,-0.019598388671443125,0.00017700195311833866,-0.2952362060482443,None,None,None,None,None,None,None
cf2,3295.42,-0.6362722778320312,-1.0031148071289062,0.5180049438476563,5.623595237731934,1.2809478759486022,0.024505615233847644,-0.1887725830036919,None,None,None,-6,-16,-79,40210
cf1,3295.44,0.9869978637695312,0.9683098754882813,0.345377685546875,2.011368751525879,-0.018460083007831998,0.004208374023443815,-0.28589935302760405,None,None,None,None,None,None,None
cf2,3295.44,-0.610563232421875,-1.0024981079101563,0.5144573974609375,5.623595237731934,1.2854522705089777,0.03083496093752609,-0.17737731933609757,None,None,None,-5,-16,-80,40138
cf1,3295.46,0.9866118164062501,0.9683535766601563,0.33993637084960937,2.113264799118042,-0.019302368164076725,0.002185058593753053,-0.2720657348635279,None,None,None,None,None,None,None
cf2,3295.46,-0.5849383544921876,-1.0018170776367188,0.5113608093261719,5.623595237731934,1.2812438964855395,0.03405151367190428,-0.15482940673842352,None,None,None,-5,-16,-81,39871
cf1,3295.48,0.9863117065429687,0.9684771118164063,0.3347547607421875,2.113264799118042,-0.015005493164080055,0.006176757812503886,-0.25908050537132826,None,None,None,None,None,None,None
cf2,3295.48,-0.5596029663085937,-1.0009969482421874,0.5085899963378906,7.979452610015869,1.2667694091808432,0.04100646972660504,-0.13854064941419109,None,None,None,-8,-15,-79,39695
cf1,3295.5,0.9859518432617188,0.9685410156250001,0.32993618774414063,2.2037363052368164,-0.017993164062512768,0.0031951904296918716,-0.24092864990256355,None,None,None,None,None,None,None
cf2,3295.5,-0.5347864379882813,-1.0001390991210937,0.5063049011230469,7.979452610015869,1.2408264160167508,0.0428924560547274,-0.1142547607422868,None,None,None,-7,-13,-77,39373
cf1,3295.52,0.9855624389648437,0.9686027221679687,0.3253310546875,2.2037363052368164,-0.019470214843770817,0.0030853271484360427,-0.23025665283224042,None,None,None,None,None,None,None
cf2,3295.52,-0.5105480041503906,-0.9991370239257813,0.5044080505371094,10.89337158203125,1.2119216918956375,0.050103759765663995,-0.09484252929696535,None,None,None,-10,-11,-74,39119
cf1,3295.54,0.9852019653320313,0.9686511230468751,0.3210966796875,2.2037363052368164,-0.018023681640638462,0.0024200439453192306,-0.2117187500001932,None,None,None,None,None,None,None
cf2,3295.54,-0.48707281494140625,-0.9979874267578125,0.5027808532714844,10.89337158203125,1.1737594604502843,0.057479858398492664,-0.08135986328132355,None,None,None,-9,-9,-70,38952
cf1,3295.56,0.9848809814453126,0.968740966796875,0.3171358032226563,2.2637555599212646,-0.01604919433595214,0.00449218750000333,-0.1980438232423662,None,None,None,None,None,None,None
cf2,3295.56,-0.46457861328125,-0.9969781494140625,0.5014937133789062,10.89337158203125,1.1247100830088357,0.05046386718754607,-0.0643569946289643,None,None,None,-9,-7,-65,38717
cf1,3295.58,0.9844918823242188,0.96871044921875,0.3134467468261719,2.2637555599212646,-0.019454956054705194,-0.0015258789062513878,-0.18445281982438622,None,None,None,None,None,None,None
cf2,3295.58,-0.4427608642578125,-0.9953843383789063,0.5004820251464844,14.093066215515137,1.0908874511728657,0.07969055175788307,-0.050584411621136735,None,None,None,-11,-4,-61,38526
cf1,3295.6,0.9840804443359376,0.9688255004882813,0.3100670166015625,2.3473870754241943,-0.020571899414081166,0.005752563476568398,-0.16898651123062428,None,None,None,None,None,None,None
cf2,3295.6,-0.42176596069335937,-0.9935415039062501,0.4997230224609375,14.093066215515137,1.0497451782236127,0.09214172363289418,-0.037950134277379796,None,None,None,-10,-2,-57,38346
cf1,3295.62,0.9838269653320313,0.9688943481445312,0.30691177368164063,2.3473870754241943,-0.012673950195324782,0.003442382812499445,-0.15776214599623667,None,None,None,None,None,None,None
cf2,3295.62,-0.4015789489746094,-0.9913977661132812,0.49908081054687503,17.24294090270996,1.009350585938417,0.1071868896485393,-0.032110595703154006,None,None,None,-11,0,-52,38272
cf1,3295.64,0.9833560791015625,0.9688807373046875,0.30404660034179687,2.3473870754241943,-0.023544311523459358,-0.0006805419921879857,-0.14325866699231843,None,None,None,None,None,None,None
cf2,3295.64,-0.38234466552734375,-0.988984130859375,0.49874209594726565,17.24294090270996,0.9617141723641562,0.12068176269542248,-0.0169357299804844,None,None,None,-10,3,-48,38036
