Crazyflie name,QTM packet timestamp (s),x (m),y (m),z (m),yaw (째),vx (m/s),vy (m/s),vz (m/s),vx_c (m/s),vy_c (m/s),vz_c (m/s),roll_c (째),pitch_c (째),yaw_rate_c (째/s),thrust_c (PWM)
cf1,3035.7,0.01613592529296875,-0.008734586715698243,0.008677676200866699,0.11639536917209625,0.00023965835571301423,0.0009341239929207784,-0.0005933761596685716,None,None,None,None,None,None,None
cf2,3035.7,-0.9594954833984375,-0.9410172729492188,-0.006002842903137207,-0.014235067181289196,0.0009643554687530532,0.00011596679687652655,-0.002155828475954077,None,None,None,None,None,None,None
cf1,3035.72,0.01613243103027344,-0.00874187469482422,0.008678241729736328,0.11639536917209625,-0.00017471313476564234,-0.00036439895629915124,2.827644348150711e-05,None,None,None,None,None,None,None
cf2,3035.72,-0.9594923706054688,-0.9410231323242187,-0.006007856845855713,-0.014235067181289196,0.00015563964843604282,-0.00029296874999888977,-0.00025069713592555047,None,None,None,None,None,None,None
cf1,3035.74,0.016138418197631836,-0.00875916576385498,0.008699871063232422,0.11054403334856033,0.0002993583679201192,-0.0008645534515388438,0.001081466674805685,None,None,None,None,None,None,None
cf2,3035.74,-0.9595116577148438,-0.9410139770507813,-0.005972764492034912,-0.017864443361759186,-0.0009643554687530532,0.0004577636718743061,0.0017546176910416577,None,None,None,None,None,None,None
cf1,3035.7599999999998,0.016131505966186524,-0.008763412475585937,0.00868947982788086,0.11054403334856033,-0.0003456115722659199,-0.0002123355865480218,-0.000519561767578628,None,None,None,None,None,None,None
cf2,3035.7599999999998,-0.9594767456054688,-0.9410369262695313,-0.005969371795654297,-0.017864443361759186,0.001745605468751943,-0.0011474609375016654,0.0001696348190309108,None,None,None,None,None,None,None
cf1,3035.7799999999997,0.016130327224731445,-0.008732012748718262,0.008729583740234375,0.11054403334856033,-5.893707275399732e-05,0.0015699863433851823,0.0020051956176775896,None,None,None,None,None,None,None
cf2,3035.7799999999997,-0.9594880981445313,-0.9410296020507812,-0.0058931617736816405,-0.022642815485596657,-0.0005676269531245837,0.00036621093750277556,0.0038105010986362905,None,None,None,None,None,None,None
cf1,3035.7999999999997,0.01611720657348633,-0.008685100555419921,0.008821470260620117,0.11631694436073303,-0.0006560325622563603,0.0023456096649191595,0.004594326019291306,None,None,None,None,None,None,None
cf2,3035.7999999999997,-0.9594931640625001,-0.9410189208984375,-0.005825147628784179,-0.022642815485596657,-0.0002532958984393735,0.0005340576171857653,0.00340070724487615,None,None,None,None,None,None,None
cf1,3035.8199999999997,0.01614701461791992,-0.008595088958740234,0.008960160255432129,0.11631694436073303,0.0014904022216809278,0.004500579833988469,0.006934499740606877,None,None,None,None,None,None,None
cf2,3035.8199999999997,-0.9594937744140625,-0.9409515991210937,-0.005610484123229981,-0.022642815485596657,-3.0517578120142774e-05,0.0033660888671935368,0.010733175277719696,None,None,None,None,None,None,None
cf1,3035.8399999999997,0.016231515884399413,-0.008459402084350587,0.009178359031677246,0.3134538233280182,0.004225063323978441,0.006784343719488517,0.010909938812265815,None,None,None,None,None,None,None
cf2,3035.8399999999997,-0.9594529418945312,-0.940895751953125,-0.004929845333099365,-0.09954194724559784,0.0020416259765639573,0.002792358398437153,0.03403193950656172,None,None,None,None,None,None,None
cf1,3035.8599999999997,0.016367425918579103,-0.008156893730163574,0.009956144332885742,0.3134538233280182,0.006795501708990672,0.015125417709364406,0.03888926506046013,None,None,None,None,None,None,None
cf2,3035.8599999999997,-0.9594215087890625,-0.9407081298828125,-0.0031713883876800537,-0.09954194724559784,0.001571655273437153,0.00938110351563513,0.08792284727104555,None,None,None,None,None,None,None
cf1,3035.8799999999997,0.01648222351074219,-0.007718606472015381,0.011905536651611329,0.3134538233280182,0.005739879608159508,0.021914362907429572,0.097469615936368,None,None,None,None,None,None,None
cf2,3035.8799999999997,-0.9593504638671875,-0.9405023193359375,0.000364939957857132,-0.09954194724559784,0.0035522460937552737,0.010290527343757494,0.1768164172770201,None,None,None,None,None,None,None
cf1,3035.8999999999996,0.016614234924316407,-0.0071212081909179685,0.015236362457275391,0.2790892422199249,0.006600570678716896,0.029869914054897796,0.16654129028335457,None,None,None,None,None,None,None
cf2,3035.8999999999996,-0.9592654418945312,-0.9401119995117188,0.006171204090118408,-0.6137973070144653,0.0042510986328164555,0.019515991210956582,0.2903132066133278,None,None,None,None,None,None,None
cf1,3035.92,0.016788129806518556,-0.006226323127746582,0.020533390045166015,0.2790892422199249,0.00869474410991766,0.044744253157592645,0.2648513793887501,None,None,None,None,None,None,None
cf2,3035.92,-0.959142333984375,-0.9396962280273438,0.014200043678283692,-0.6137973070144653,0.0061553955076776076,0.02078857421829592,0.40144197939950155,None,None,None,None,None,None,None
cf1,3035.94,0.01700160026550293,-0.0052186307907104495,0.027648719787597656,0.4404676556587219,0.010673522949228464,0.05038461685185246,0.3557664871219056,None,None,None,None,None,None,None
cf2,3035.94,-0.9589727172851563,-0.939136962890625,0.02470955848693848,-1.5364329814910889,0.008480834960941038,0.027963256835964352,0.5254757404332172,None,None,None,None,None,None,None
cf1,3035.96,0.01724913024902344,-0.003974601745605469,0.03669225311279297,0.4404676556587219,0.012376499176036651,0.062201452255305587,0.452176666260177,None,None,None,None,None,None,None
cf2,3035.96,-0.9587332153320313,-0.9385092163085937,0.037552085876464844,-1.5364329814910889,0.0119750976562636,0.0313873291015906,0.6421263694769023,None,None,None,None,None,None,None
cf1,3035.98,0.017585315704345704,-0.0026729464530944823,0.04743484878540039,0.4404676556587219,0.01680927276612855,0.06508276462560854,0.5371297836308596,None,None,None,None,None,None,None
cf2,3035.98,-0.9584426879882812,-0.93780908203125,0.052399108886718754,-1.5364329814910889,0.014526367187513878,0.03500671386721796,0.7423511505133706,None,None,None,None,None,None,None
cf1,3036.0,0.017916994094848634,-0.0012307789325714112,0.0599716911315918,1.2639682292938232,0.016583919525161608,0.07210837602621914,0.6268421173101405,None,None,None,None,None,None,None
cf2,3036.0,-0.9581403198242188,-0.9370191040039063,0.06936967468261719,-2.7614150047302246,0.015118408203137906,0.03949890136722129,0.8485282897956936,None,None,None,None,None,None,None
cf1,3036.02,0.01831020164489746,0.00033518204092979433,0.07415613555908203,1.2639682292938232,0.019660377502459157,0.07829804867513149,0.7092222213751564,None,None,None,None,None,None,None
cf2,3036.02,-0.9577430419921875,-0.9362443237304687,0.08786688232421876,-2.7614150047302246,0.01986389160158061,0.03873901367191428,0.9248603820809194,None,None,None,None,None,None,None
cf1,3036.04,0.01870934295654297,0.0019355696439743043,0.08961782836914063,2.2973554134368896,0.01995706558229366,0.08001938015229827,0.7730846405036332,None,None,None,None,None,None,None
cf2,3036.04,-0.9573745727539062,-0.9354578857421875,0.10769702911376954,-3.920048236846924,0.018423461914080057,0.03932189941409893,0.9915073394784407,None,None,None,None,None,None,None
cf1,3036.06,0.019208621978759766,0.003484913110733032,0.10630690002441406,2.2973554134368896,0.02496395111086251,0.07746717333800686,0.8344535827644306,None,None,None,None,None,None,None
cf2,3036.06,-0.956921630859375,-0.9348473510742188,0.12861949157714844,-3.920048236846924,0.022647094726583942,0.030526733398461577,1.0461231231698969,None,None,None,None,None,None,None
cf1,3036.08,0.01973771095275879,0.004788636207580566,0.12379049682617188,2.2973554134368896,0.026454448699975274,0.06518615484243599,0.8741798400886859,None,None,None,None,None,None,None
cf2,3036.08,-0.9564855346679688,-0.9343117675781251,0.15061546325683595,-3.920048236846924,0.021804809570328113,0.026779174804710745,1.0997985839853754,None,None,None,None,None,None,None
cf1,3036.1,0.0202120418548584,0.005947972297668457,0.14195794677734375,2.952244281768799,0.02371654510500201,0.05796680450444725,0.9083724975594194,None,None,None,None,None,None,None
cf2,3036.1,-0.9560298461914063,-0.933901123046875,0.17310203552246095,-4.561038970947266,0.02278442382814679,0.020532226562521648,1.1243286132822727,None,None,None,None,None,None,None
cf1,3036.12,0.02068754768371582,0.0069286999702453615,0.160605224609375,2.952244281768799,0.02377529144289269,0.049036383628889825,0.9323638916024113,None,None,None,None,None,None,None
cf2,3036.12,-0.9554217529296876,-0.9335770263671875,0.19587185668945312,-4.561038970947266,0.030404663085964352,0.016204833984388184,1.1384910583506438,None,None,None,None,None,None,None
cf1,3036.14,0.02110982894897461,0.007711680412292481,0.17945257568359374,3.409440279006958,0.021114063262958737,0.03914902210239157,0.9423675537117934,None,None,None,None,None,None,None
cf2,3036.14,-0.9549711303710938,-0.9333199462890626,0.21858621215820312,-4.827572345733643,0.022531127929707413,0.01285400390626027,1.135717773438533,None,None,None,None,None,None,None
cf1,3036.16,0.021539215087890626,0.00831108856201172,0.19841950988769533,3.409440279006958,0.02146930694582025,0.029970407485989198,0.9483467102059419,None,None,None,None,None,None,None
cf2,3036.16,-0.954375732421875,-0.9331844482421875,0.24162998962402343,-4.827572345733643,0.029769897460967684,0.0067749023437597145,1.1521888732920635,None,None,None,None,None,None,None
cf1,3036.18,0.021806325912475586,0.00870361614227295,0.21728936767578125,3.409440279006958,0.013355541229260161,0.019626379013079343,0.9434928894051541,None,None,None,None,None,None,None
cf2,3036.18,-0.95375341796875,-0.9333092041015625,0.26434725952148436,-4.952516555786133,0.031115722656278034,-0.006237792968755274,1.1358634948740791,None,None,None,None,None,None,None
cf1,3036.2,0.02208427429199219,0.008903050422668457,0.23596119689941406,3.67576265335083,0.013897418975842752,0.00997171401978443,0.9335914611824895,None,None,None,None,None,None,None
cf2,3036.2,-0.9531172485351562,-0.9334180908203126,0.2866842041015625,-4.952516555786133,0.031808471679718515,-0.005444335937509437,1.1168472290049218,None,None,None,None,None,None,None
cf1,3036.22,0.022332040786743165,0.008890137672424317,0.254277587890625,3.67576265335083,0.01238832473756008,-0.0006456375122075734,0.9158195495613797,None,None,None,None,None,None,None
cf2,3036.22,-0.9524849243164063,-0.9336466064453125,0.3087245788574219,-4.952516555786133,0.03161621093752498,-0.01142578125000666,1.1020187377939725,None,None,None,None,None,None,None
cf1,3036.24,0.02246666717529297,0.008738993644714355,0.27210742187500003,3.819737434387207,0.0067313194274964076,-0.007557201385504957,0.891491699219563,None,None,None,None,None,None,None
cf2,3036.24,-0.9517953491210938,-0.9340459594726562,0.3300142822265625,-4.8972554206848145,0.034478759765658444,-0.019967651367204638,1.0644851684579981,None,None,None,None,None,None,None
cf1,3036.2599999999998,0.02256015968322754,0.008313904762268067,0.2893851318359375,3.819737434387207,0.004674625396732751,-0.021254444122333755,0.8638854980476592,None,None,None,None,None,None,None
cf2,3036.2599999999998,-0.9510890502929688,-0.93458447265625,0.35069161987304687,-4.8972554206848145,0.035314941406282475,-0.026925659179712964,1.0338668823251596,None,None,None,None,None,None,None
cf1,3036.2799999999997,0.022559612274169923,0.007727662563323975,0.30603427124023436,3.819737434387207,-2.7370452880909248e-05,-0.029312109947231255,0.8324569702155997,None,None,None,None,None,None,None
cf2,3036.2799999999997,-0.9503492431640626,-0.935144775390625,0.3705191345214844,-4.661328315734863,0.03699035644534365,-0.028015136718776368,0.9913757324227774,None,None,None,None,None,None,None
cf1,3036.2999999999997,0.022478338241577148,0.007003853797912598,0.32193646240234375,3.9288158416748047,-0.004063701629642443,-0.03619043827060176,0.7951095581061928,None,None,None,None,None,None,None
cf2,3036.2999999999997,-0.949651611328125,-0.9358603515625,0.38971896362304687,-4.661328315734863,0.03488159179690761,-0.03577880859378303,0.9599914550789972,None,None,None,None,None,None,None
cf1,3036.3199999999997,0.022346664428710937,0.006091325759887695,0.33718975830078124,3.9288158416748047,-0.006583690643316521,-0.04562640190128664,0.7626647949225682,None,None,None,None,None,None,None
cf2,3036.3199999999997,-0.9488831176757813,-0.9366056518554687,0.4078885192871094,-4.661328315734863,0.03842468261722351,-0.03726501464846935,0.9084777832039528,None,None,None,None,None,None,None
cf1,3036.3399999999997,0.022035327911376953,0.005047418117523193,0.35166815185546874,3.9444544315338135,-0.015566825866713336,-0.05219538211827257,0.7239196777350332,None,None,None,None,None,None,None
cf2,3036.3399999999997,-0.9480791015625,-0.9374374389648438,0.42518206787109375,-4.33554220199585,0.04020080566410115,-0.04158935546878969,0.864677429200004,None,None,None,None,None,None,None
cf1,3036.3599999999997,0.02173702812194824,0.003906959295272827,0.3653514709472656,3.9444544315338135,-0.014914989471449154,-0.057022941112570176,0.684165954590466,None,None,None,None,None,None,None
cf2,3036.3599999999997,-0.9473511352539062,-0.9384329223632812,0.44157293701171874,-4.33554220199585,0.03639831542971963,-0.049774169921918715,0.8195434570319947,None,None,None,None,None,None,None
cf1,3036.3799999999997,0.021293754577636718,0.0026283516883850097,0.3782919921875,3.9444544315338135,-0.022163677215596353,-0.06393038034444899,0.647026062012307,None,None,None,None,None,None,None
cf2,3036.3799999999997,-0.9465931396484375,-0.9393585205078125,0.45703695678710937,-4.33554220199585,0.03789978027347157,-0.046279907226607256,0.773200988770235,None,None,None,None,None,None,None
cf1,3036.3999999999996,0.02079047966003418,0.0012932138442993165,0.3903847351074219,3.878692626953125,-0.025163745880149743,-0.06675689220434537,0.6046371459966452,None,None,None,None,None,None,None
cf2,3036.3999999999996,-0.9457462768554687,-0.94039013671875,0.47138467407226564,-4.003866672515869,0.04234313964847601,-0.05158081054692205,0.717385864258466,None,None,None,None,None,None,None
cf1,3036.42,0.020251428604125977,-0.00017015662789344788,0.40168191528320313,3.878692626953125,-0.026952552794821876,-0.0731685236080411,0.5648590087767323,None,None,None,None,None,None,None
cf2,3036.42,-0.944989990234375,-0.9413424682617187,0.48488128662109375,-4.003866672515869,0.037814331053860936,-0.047616577147395554,0.6748306274266755,None,None,None,None,None,None,None
cf1,3036.44,0.01967646598815918,-0.0016760702133178712,0.4121335144042969,3.7758641242980957,-0.02874813079836598,-0.07529567927128965,0.5225799560551643,None,None,None,None,None,None,None
cf2,3036.44,-0.9440211181640625,-0.9426144409179688,0.4972283935546875,-3.6783106327056885,0.04844360351566844,-0.06359863281255829,0.6173553466802492,None,None,None,None,None,None,None
cf1,3036.46,0.01904109001159668,-0.003233232259750366,0.4218848876953125,3.7758641242980957,-0.03176879882815397,-0.07785810232169556,0.48756866455122383,None,None,None,None,None,None,None
cf2,3036.46,-0.9427816162109375,-0.9434638671875,0.5079220275878906,-3.6783106327056885,0.06197509765630912,-0.042471313476599486,0.534681701660642,None,None,None,None,None,None,None
cf1,3036.48,0.018303356170654296,-0.0048564357757568365,0.4308305358886719,3.7758641242980957,-0.036886692047152676,-0.08116017580039733,0.4472824096683746,None,None,None,None,None,None,None
cf2,3036.48,-0.9423718872070312,-0.9448128662109375,0.5195358276367188,-3.6783106327056885,0.02048645019533033,-0.0674499511719387,0.5806900024419367,None,None,None,None,None,None,None
cf1,3036.5,0.017516515731811524,-0.00655718469619751,0.4391148376464844,3.653442859649658,-0.039342021942174364,-0.08503744602211102,0.4142150878910032,None,None,None,None,None,None,None
cf2,3036.5,-0.9411939086914063,-0.9456544189453125,0.5285747680664062,-3.4122164249420166,0.05889892578130135,-0.04207763671878969,0.45194702148478344,None,None,None,None,None,None,None
cf1,3036.52,0.016713388442993166,-0.008201896667480469,0.446695556640625,3.653442859649658,-0.04015636444095446,-0.08223559856422273,0.3790359497073742,None,None,None,None,None,None,None
cf2,3036.52,-0.9403416748046876,-0.9466963500976563,0.5375617065429688,-3.4122164249420166,0.042611694335975454,-0.05209655761723461,0.44934692382853425,None,None,None,None,None,None,None
cf1,3036.54,0.015883397102355958,-0.009874545097351074,0.45362872314453123,3.5043997764587402,-0.041499567031898145,-0.08363242149360631,0.34665832519562734,None,None,None,None,None,None,None
cf2,3036.54,-0.93958740234375,-0.9477450561523437,0.5458031616210938,-3.189533233642578,0.03771362304690983,-0.05243530273441927,0.4120727539066255,None,None,None,None,None,None,None
cf1,3036.56,0.014960502624511719,-0.011538647651672363,0.4600081787109375,3.5043997764587402,-0.0461447238922539,-0.08320512771614014,0.31897277832060456,0.004303983695642155,0.007760660003520037,0.03999182128906248,None,None,None,None
cf2,3036.56,-0.9388235473632812,-0.9487656250000001,0.5534442749023437,-3.189533233642578,0.03819274902347601,-0.05102844238286308,0.38205566406284475,None,None,None,None,None,None,None
cf1,3036.58,0.01403438949584961,-0.01318852138519287,0.4657479248046875,3.5043997764587402,-0.0463056564331476,-0.08249368667610042,0.2869873046877609,0.00670938013915792,0.012025221859037118,0.03425207519531248,None,None,None,None
cf2,3036.58,-0.9381040649414063,-0.9497396240234375,0.5603798217773438,-2.986593246459961,0.03597412109377859,-0.04869995117191538,0.34677734375031977,None,None,None,None,None,None,None
cf1,3036.6,0.013169650077819825,-0.014825427055358886,0.4709761047363281,3.371065378189087,-0.04323697090152853,-0.08184528350837522,0.2614089965822676,0.008364259293500343,0.015259513894950623,0.029023895263671884,None,None,None,None
cf2,3036.6,-0.9373273315429688,-0.9506708984375,0.5666548461914063,-2.986593246459961,0.03883666992191205,-0.04656372070316677,0.31375122070340883,0,0.004974530496134989,0.03334515380859371,None,None,None,None
cf1,3036.62,0.012254465103149413,-0.016361625671386718,0.4756465759277344,3.371065378189087,-0.04575924873356219,-0.07680993080146145,0.23352355957052684,0.00992928613167421,0.01774959662867996,0.024353424072265595,None,None,None,None
cf2,3036.62,-0.9366929931640625,-0.9515851440429688,0.5725394287109375,-2.986593246459961,0.031716918945341434,-0.045712280273482675,0.29422912597683154,0,0.008044085728261242,0.02746057128906243,None,None,None,None
cf1,3036.64,0.011307822227478028,-0.017895645141601562,0.47979641723632815,3.101850748062134,-0.047332143783612314,-0.07670097351081195,0.20749206542987617,0.011364444353033328,0.019922162262819433,0.020203582763671846,None,None,None,None
cf2,3036.64,-0.9360838012695313,-0.95237060546875,0.5779631958007813,-2.829551935195923,0.030459594726589493,-0.03927307128909449,0.2711883544924322,0,0.010061259906762744,0.022036804199218718,None,None,None,None
cf1,3036.66,0.010389217376708984,-0.01935499954223633,0.48341473388671874,3.101850748062134,-0.04593024253849396,-0.07296772003180477,0.1809158325196938,0.012624600124992839,0.021784315829929183,0.01658526611328126,None,None,None,None
cf2,3036.66,-0.9354197998046875,-0.9531304931640625,0.5826915893554687,-2.829551935195923,0.033200073242220185,-0.037994384765661776,0.23641967773458802,0,0.011676046153914937,0.017308410644531258,None,None,None,None
cf1,3036.68,0.009505363464355468,-0.020678037643432616,0.48636282348632814,3.101850748062134,-0.044192695617715994,-0.06615190505987446,0.1474044799806043,0.013769540772657431,0.023323666751153473,0.013637176513671856,None,None,None,None
cf2,3036.68,-0.9347467651367187,-0.953787353515625,0.5869343872070313,-2.829551935195923,0.03365173339846824,-0.03284301757815678,0.21213989257832108,0,0.012855751215764067,0.013065612792968695,None,None,None,None
cf1,3036.7,0.008582204818725587,-0.021971101760864257,0.4887753601074219,2.5019304752349854,-0.04615793228153606,-0.06465320587164085,0.12062683105479734,0.014914867372137399,0.02471083232533831,0.011224639892578103,None,None,None,None
cf2,3036.7,-0.9341038208007812,-0.954345703125,0.5904764404296875,-2.4759104251861572,0.032147216796903175,-0.027917480468773036,0.17710266113297188,0,0.013734595075324362,0.009523559570312479,None,None,None,None
cf1,3036.72,0.007738893032073975,-0.023201425552368163,0.4906475524902344,2.5019304752349854,-0.04216558933261896,-0.06151618957525125,0.09360961914071007,0.01587456172808433,0.02597560079783283,0.009352447509765605,None,None,None,None
cf2,3036.72,-0.9334318237304687,-0.9548482666015625,0.5934404907226563,-2.4759104251861572,0.033599853515656225,-0.025128173828149008,0.1482025146485726,0,0.014420951208592827,0.0065595092773437225,None,None,None,None
cf1,3036.74,0.006918038368225098,-0.024279529571533204,0.4919559326171875,1.6564621925354004,-0.04104273319248118,-0.05390520095830107,0.06541900634771512,0.016805932441599104,0.027002733864263828,0.008044067382812492,None,None,None,None
cf2,3036.74,-0.9328338623046876,-0.9552540283203125,0.595911376953125,-1.8607109785079956,0.029898071289085608,-0.020288085937516097,0.1235443115235504,0,0.01491699928254919,0.004088623046874962,None,None,None,None
cf1,3036.7599999999998,0.006092645645141601,-0.02527109146118164,0.4927774353027344,1.6564621925354004,-0.04126963615421234,-0.049578094482466924,0.04107513427738091,0.017732931271820514,0.02788610248011405,0.007222564697265621,None,None,None,None
cf2,3036.7599999999998,-0.932207763671875,-0.95557861328125,0.5976849975585937,-1.8607109785079956,0.031304931640658444,-0.01622924804689318,0.08868103027351598,0,0.015214989838541294,0.0023150024414062553,None,None,None,None
cf1,3036.7799999999997,0.0053130025863647465,-0.026153018951416016,0.49308807373046876,1.6564621925354004,-0.038982152938878196,-0.04409637451175886,0.015531921386733009,0.01859132533561699,0.02863075762502675,0.006911926269531243,None,None,None,None
cf2,3036.7799999999997,-0.9315548095703126,-0.9557990112304687,0.5988886108398438,-1.8607109785079956,0.03264770507815012,-0.01101989746094437,0.06018066406255829,0,0.015284604343504074,0.0011113891601561843,None,None,None,None
cf1,3036.7999999999997,0.00460608720779419,-0.026928472518920898,0.49303152465820316,0.656585156917572,-0.03534576892855998,-0.038772678375279375,-0.002827453613282534,0.01934959966119277,0.029261115580191892,0.006968475341796843,None,None,None,None
cf2,3036.7999999999997,-0.9309163208007812,-0.9559465332031251,0.59955322265625,-1.0535426139831543,0.03192443847659504,-0.007376098632823116,0.03323059082034033,0,0.015222298233456978,0.00044677734374998224,None,None,None,None
cf1,3036.8199999999997,0.003944006443023682,-0.027558486938476564,0.49249938964843754,0.656585156917572,-0.03310403823855551,-0.03150072097781196,-0.026606750488305294,0.020072546987636726,0.02973030732143563,0.0075006103515624645,None,None,None,None
cf2,3036.8199999999997,-0.9302752075195313,-0.9560438842773438,0.5997755737304687,-1.0535426139831543,0.03205566406252609,-0.004867553710939929,0.0111175537109477,0,0.015067978853297102,0.00022442626953123046,None,None,None,None
cf1,3036.8399999999997,0.003273463249206543,-0.02809959411621094,0.49171142578125,-0.37341007590293884,-0.033527159690887445,-0.027055358886743347,-0.039398193359413164,0.020818836315840764,0.030089318214548293,0.008288574218750011,None,None,None,None
cf2,3036.8399999999997,-0.929660888671875,-0.9560205688476563,0.599586181640625,-0.17735910415649414,0.03071594238284199,0.0011657714843748613,-0.009469604492193537,0,0.014701855078182913,0.00041381835937492895,None,None,None,None
cf1,3036.8599999999997,0.002702617406845093,-0.028523818969726562,0.4906623840332031,-0.37341007590293884,-0.028542292118098462,-0.02121124267580047,-0.052452087402391455,0.021451063702683546,0.030350766122080562,0.009337615966796886,None,None,None,None
cf2,3036.8599999999997,-0.9289766235351563,-0.9559248657226562,0.5990335083007813,-0.17735910415649414,0.03421325683596657,0.004785156250007772,-0.02763366699221352,0,0.014172089424781832,0.0009664916992186967,None,None,None,None
cf1,3036.8799999999997,0.0021815476417541505,-0.02879209899902344,0.48931915283203126,-0.37341007590293884,-0.026053488254570812,-0.013414001464856032,-0.06716156005865395,0.022059129220154135,0.030456090416562862,0.010680847167968743,None,None,None,None
cf2,3036.8799999999997,-0.928354248046875,-0.95575927734375,0.5981791381835938,-0.17735910415649414,0.03111877441409116,0.008279418945319231,-0.04271850585941261,0,0.013551072340514211,0.0018208618164061718,None,None,None,None
cf1,3036.8999999999996,0.0017155836820602417,-0.028985565185546874,0.4878216552734375,-1.2912074327468872,-0.023298197984716627,-0.009673309326180567,-0.07487487792975515,0.022609927694152557,0.030498621737678498,0.012178344726562484,None,None,None,None
cf2,3036.8999999999996,-0.9276656494140625,-0.9555112915039062,0.5970125122070312,0.662658154964447,0.03442993164065956,0.012399291992199088,-0.05833129882818232,0,0.01275476034277365,0.002987487792968757,None,None,None,None
cf1,3036.92,0.0012551717758178711,-0.02903611755371094,0.48619268798828125,-1.2912074327468872,-0.02302059531161604,-0.0025276184081480303,-0.08144836425603559,0.023196748422030584,0.03038551606354579,0.013807312011718753,None,None,None,None
cf2,3036.92,-0.9269815063476563,-0.9552404174804687,0.5957265625,0.662658154964447,0.03420715331956255,0.013543701171579681,-0.06429748535015752,0,0.011936287594533058,0.004273437499999977,None,None,None,None
cf1,3036.94,0.0009170866012573242,-0.029018657684326172,0.4844732360839844,-1.9815090894699097,-0.016904258728042718,0.0008729934692391182,-0.08597259521492032,0.023642229150635307,0.030241888716233855,0.015526763916015596,None,None,None,None
cf2,3036.94,-0.9263184814453125,-0.954864501953125,0.5942702026367188,1.318566083908081,0.03315124511722129,0.018795776367203528,-0.07281799316412557,0,0.010941241377949353,0.005729797363281164,None,None,None,None
cf1,3036.96,0.0006013695597648621,-0.02881015205383301,0.48272171020507815,-1.9815090894699097,-0.015785852074637462,0.010425281524667599,-0.0875762939453925,0.024125186696233113,0.029892960980370125,0.017278289794921853,None,None,None,None
cf2,3036.96,-0.9256333618164063,-0.9544000244140625,0.5926953125,1.318566083908081,0.034255981445339215,0.0232238769531479,-0.07874450683601432,0,0.00978791882474378,0.007304687500000018,None,None,None,None
cf1,3036.98,0.0003602946102619171,-0.02856033515930176,0.48081390380859373,-1.9815090894699097,-0.012053747475158213,0.012490844726573915,-0.0953903198243074,0.024525402985489917,0.02952222544462389,0.019186096191406266,None,None,None,None
cf2,3036.98,-0.924993896484375,-0.9539161987304687,0.59115380859375,1.318566083908081,0.031973266601593935,0.024191284179708526,-0.07707519531256828,0,0.008638131627073447,0.008846191406249981,None,None,None,None
cf1,3037.0,0.0002248571664094925,-0.02819082832336426,0.479076416015625,-2.3859782218933105,-0.00677187219262739,0.018475341796891722,-0.08687438964851542,0.024835444001306096,0.029050794533367653,0.020923583984374994,None,None,None,None
cf2,3037.0,-0.9242770385742187,-0.953353515625,0.5895226440429687,1.7367807626724243,0.03584289550784754,0.028134155273460467,-0.08155822753913779,0,0.007343170590099594,0.010477355957031254,None,None,None,None
cf1,3037.02,6.924006342887879e-05,-0.027741308212280272,0.4772870788574219,-2.3859782218933105,-0.007780855149037762,0.022476005554219823,-0.08946685791023733,0.02520155235674337,0.028472599897551562,0.022712921142578113,None,None,None,None
cf2,3037.02,-0.9236082763671876,-0.9527435302734375,0.5879861450195313,1.7367807626724243,0.03343811035158838,0.03049926757815456,-0.07682495117194203,0,0.006003985543909128,0.012013854980468697,None,None,None,None
cf1,3037.04,4.479228227864951e-07,-0.027229543685913085,0.47560165405273436,-2.4734907150268555,-0.003439607030307743,0.02558822631838264,-0.08427124023445313,0.025483137473921894,0.02784494301989859,0.024398345947265643,None,None,None,None
cf2,3037.04,-0.9229472656250001,-0.9521203002929688,0.586514404296875,1.8819936513900757,0.03305053710940484,0.0311614990234638,-0.07358703613288307,0,0.004679213984346511,0.01348559570312502,None,None,None,None
cf1,3037.06,-4.146731272339821e-05,-0.026575037002563476,0.4739888916015625,-2.4734907150268555,-0.0020957617773111415,0.032725334167510195,-0.08063812255866672,0.025787895462235682,0.027043906195629894,0.02601110839843751,None,None,None,None
cf2,3037.06,-0.9222598266601563,-0.9514130249023438,0.5850220947265625,1.8819936513900757,0.03437194824222129,0.03536376953128136,-0.07461547851568953,0,0.0032312808797657143,0.014977905273437453,None,None,None,None
cf1,3037.08,3.649840131402016e-05,-0.02587750434875488,0.47243280029296875,-2.4734907150268555,0.0038982857018744644,0.03487663269046146,-0.07780456542975793,0.025962414045861866,0.02621809237770187,0.027567199707031254,None,None,None,None
cf2,3037.08,-0.9215281372070313,-0.9506902465820313,0.583555908203125,1.8819936513900757,0.03658447265628136,0.03613891601565956,-0.07330932617194424,0,0.0018003056108101827,0.016444091796875004,None,None,None,None
cf1,3037.1,9.812106937170028e-05,-0.025155504226684573,0.4709515686035156,-2.256275177001953,0.0030811334028868088,0.03610000610354829,-0.07406158447272401,0.02617006468199886,0.025333968692217764,0.029048431396484387,None,None,None,None
cf2,3037.1,-0.9213328857421875,-0.950154296875,0.5831696166992187,1.8154120445251465,0.009762573242197977,0.026797485351589493,-0.019314575195329222,0,0.0007814808638945465,0.016830383300781238,None,None,None,None
cf1,3037.12,0.0002177845537662506,-0.024366748809814452,0.4695634460449219,-2.256275177001953,0.0059831742197329575,0.039437770843541886,-0.06940612792974905,0.026334812225732366,0.02436224324590119,0.030436553955078105,None,None,None,None
cf2,3037.12,-0.9203084716796875,-0.9492312622070312,0.5812316284179687,1.8154120445251465,0.05122070312504552,0.04615173339847823,-0.09689941406258937,0,0,0.018768371582031262,None,None,None,None
cf1,3037.14,0.0004074959754943848,-0.023576370239257814,0.4683336486816406,-1.7935010194778442,0.009485571086415335,0.03951892852786784,-0.06148986816411947,0.026415648845003026,0.023387497666033624,0.031666351318359376,None,None,None,None
cf2,3037.14,-0.9196476440429687,-0.9484404907226562,0.5800930786132813,1.5433417558670044,0.033041381835971016,0.03953857421878636,-0.056927490234422604,0,0,0.01990692138671868,None,None,None,None
cf1,3037.16,0.0005798682570457459,-0.022713176727294924,0.46711837768554687,-1.7935010194778442,0.008618614077575894,0.043159675598183775,-0.06076354980474294,0.02655014389794485,0.022273785391150144,0.03288162231445313,None,None,None,None
cf2,3037.16,-0.9194970703125,-0.9479219970703125,0.5800951538085938,1.5433417558670044,0.007528686523440483,0.02592468261720797,0.00010375976562402855,0,0,0.0199048461914062,None,None,None,None
cf1,3037.18,0.000803059458732605,-0.021848892211914064,0.4660957946777344,-1.7935010194778442,0.011159560084353107,0.04321422576908227,-0.051129150390671216,0.026623519955690105,0.02114006177412949,0.033904205322265624,None,None,None,None
cf2,3037.18,-0.918892333984375,-0.9471764526367188,0.5792725830078125,1.134601354598999,0.030236816406281362,0.03727722167972185,-0.04112854003910226,0,0,0.020727416992187497,None,None,None,None
cf1,3037.2,0.0010878945589065552,-0.020966907501220704,0.4651388854980469,-1.1502366065979004,0.014241755008710461,0.04409923553470814,-0.04784545898441816,0.026627906109885774,0.01996325462820042,0.03486111450195312,None,None,None,None
cf2,3037.2,-0.9179171752929688,-0.9462250366210938,0.5776648559570312,1.134601354598999,0.04875793457035365,0.047570800781292465,-0.08038635253913667,0,0,0.02233514404296877,None,None,None,None
cf1,3037.22,0.0013488579988479616,-0.020081069946289064,0.46435568237304686,-1.1502366065979004,0.013048171997082185,0.044291877746622244,-0.03916015625003664,0.026663404900861498,0.01872372441533114,0.03564431762695314,None,None,None,None
cf2,3037.22,-0.9177682495117188,-0.94571533203125,0.5778202514648437,1.134601354598999,0.007446289062508327,0.02548522949221241,0.00776977539063291,0,0,0.022179748535156252,None,None,None,None
cf1,3037.24,0.0016060175895690918,-0.019210153579711915,0.4635674743652344,-0.4016724228858948,0.01285797953606821,0.043545818328897104,-0.039410400390660114,0.026695587931266366,0.017455553164328102,0.03643252563476562,None,None,None,None
cf2,3037.24,-0.9172575073242187,-0.9450287475585938,0.5773046875,0.6109350919723511,0.025537109375024424,0.0343292236328431,-0.025778198242211302,0,0,0.02269531250000001,None,None,None,None
cf1,3037.2599999999998,0.0018964465856552125,-0.01833742141723633,0.46287600708007814,-0.4016724228858948,0.014521449804319238,0.043636608123819,-0.0345733642578431,0.026682873901314155,0.01614461003606818,0.037123992919921855,None,None,None,None
cf2,3037.2599999999998,-0.9167374877929688,-0.9443520507812501,0.5767763061523438,0.6109350919723511,0.02600097656251943,0.03383483886721685,-0.02641906738283422,0,0,0.023223693847656213,None,None,None,None
cf1,3037.2799999999997,0.002179776191711426,-0.0174958610534668,0.46223074340820314,-0.4016724228858948,0.014166480302823553,0.04207801818851477,-0.0322631835937797,0.026660366715073464,0.014827254750141022,0.03776925659179686,None,None,None,None
cf2,3037.2799999999997,-0.9162450561523438,-0.9437279663085938,0.5763941650390625,0.10629507899284363,0.02462158203127581,0.03120422363284199,-0.019107055664081166,0,0,0.02360583496093749,None,None,None,None
cf1,3037.2999999999997,0.00248388671875,-0.016653528213500978,0.4616487731933594,0.35001739859580994,0.015205526351942531,0.04211664199832932,-0.02909851074221352,0.026603317842521824,0.0134589576279348,0.038351226806640604,None,None,None,None
cf2,3037.2999999999997,-0.9158148803710938,-0.9431408081054687,0.5760275268554688,0.10629507899284363,0.021508789062516097,0.029357910156279143,-0.018331909179702975,0,0,0.023972473144531214,None,None,None,None
cf1,3037.3199999999997,0.0027863056659698485,-0.015880337715148928,0.461168212890625,0.35001739859580994,0.015120947361006182,0.03865952491763769,-0.024028015136742447,0.026511171113113862,0.012156943129981598,0.038831787109375016,None,None,None,None
cf2,3037.3199999999997,-0.9149153442382812,-0.942278564453125,0.5746967163085938,0.10629507899284363,0.044976806640669546,0.043112182617227955,-0.06654052734381079,0,0,0.02530328369140622,None,None,None,None
cf1,3037.3399999999997,0.003079935550689697,-0.015131311416625976,0.46065347290039066,1.0023250579833984,0.014681494236005788,0.03745131492618161,-0.02573699951173967,0.026407978363170544,0.010842424969174763,0.03934652709960934,None,None,None,None
cf2,3037.3399999999997,-0.9148906250000001,-0.9418893432617188,0.5751177978515625,-0.33887988328933716,0.0012359619140600714,0.019461059570325893,0.021054077148454916,0,0,0.024882202148437504,None,None,None,None
cf1,3037.3599999999997,0.003387473821640015,-0.014421590805053711,0.46014276123046877,1.0023250579833984,0.015376913547529871,0.03548603057864555,-0.025535583496117863,0.026258605790567876,0.009555042718173316,0.039857238769531234,None,None,None,None
cf2,3037.3599999999997,-0.9145139770507813,-0.94134521484375,0.5748510131835938,-0.33887988328933716,0.018832397460955472,0.02720642089846491,-0.013339233398447146,0,0,0.025148986816406205,None,None,None,None
cf1,3037.3799999999997,0.0037094290256500244,-0.013746663093566895,0.45969924926757816,1.0023250579833984,0.016097760200515114,0.0337463855743715,-0.022175598144550574,0.026062794080490302,0.008289672960768959,0.04030075073242184,None,None,None,None
cf2,3037.3799999999997,-0.9141260986328125,-0.9408289794921875,0.574554931640625,-0.33887988328933716,0.019393920898459358,0.025811767578150117,-0.014804077148452697,0,0,0.02544506835937499,None,None,None,None
cf1,3037.3999999999996,0.003960598945617676,-0.013130655288696289,0.4593043823242188,1.483899474143982,0.012558495998394014,0.03080039024355831,-0.019743347167987174,0.02591897420792034,0.007078458844824657,0.040695617675781226,None,None,None,None
cf2,3037.3999999999996,-0.9137699584960938,-0.94038671875,0.5743234252929688,-0.7410433292388916,0.01780700683595103,0.022113037109392625,-0.011575317382822007,0,0,0.02567657470703122,None,None,None,None
cf1,3037.42,0.004190464973449707,-0.012581342697143555,0.45893020629882814,1.483899474143982,0.011493301391350652,0.027465629577037163,-0.01870880126912352,0.02576614607045035,0.005964606787290169,0.041069793701171864,None,None,None,None
cf2,3037.42,-0.9134156494140625,-0.9399520263671876,0.5741570434570312,-0.7410433292388916,0.017715454101176697,0.021734619140148716,-0.008319091796695145,0,0,0.025842956542968754,None,None,None,None
cf1,3037.44,0.004462733268737793,-0.012064912796020509,0.4584950866699219,1.7690141201019287,0.013613414764416706,0.02582149505617581,-0.021755981445331998,0.025535454115547022,0.004897441574359862,0.04150491333007811,None,None,None,None
cf2,3037.44,-0.9130796508789063,-0.9395350341796875,0.5739842529296875,-1.015673279762268,0.016799926757825337,0.020849609375019985,-0.008639526367195758,0,0,0.02601574707031251,None,None,None,None
cf1,3037.46,0.004714477062225342,-0.01162564754486084,0.458081787109375,1.7690141201019287,0.012587189674388882,0.021963262558003422,-0.020664978027362033,0.025298660857559215,0.003966412758549339,0.04191821289062497,None,None,None,None
cf2,3037.46,-0.9127805786132813,-0.9391316528320313,0.5738233032226563,-1.015673279762268,0.01495361328126249,0.020169067382831998,-0.008047485351566177,0,0,0.02617669677734369,None,None,None,None
cf1,3037.48,0.004960275650024414,-0.011255361557006837,0.45770458984375,1.7690141201019287,0.012289929389964765,0.018514299392716996,-0.01885986328126804,0.025044237608259644,0.0031658986545126592,0.04229541015624999,None,None,None,None
cf2,3037.48,-0.9125008544921875,-0.93879150390625,0.5736710815429688,-1.015673279762268,0.013986206054701864,0.017007446289078944,-0.007611083984383743,0,0,0.026328918457031225,None,None,None,None
cf1,3037.5,0.005191981315612793,-0.010934490203857422,0.4573688659667969,1.8232800960540771,0.011585283279429493,0.01604356765748532,-0.016786193847671826,0.024789276709759996,0.002457604592922292,0.04263113403320312,None,None,None,None
cf2,3037.5,-0.9121802978515625,-0.9384406127929688,0.5734756469726563,-1.1824232339859009,0.016027832031265822,0.017544555664077834,-0.0097717285156318,0,0,0.026524353027343683,None,None,None,None
cf1,3037.52,0.005413246154785156,-0.010657957077026367,0.457021728515625,1.8232800960540771,0.011063241958628222,0.013826656341565326,-0.017356872558609536,0.02453287732336603,0.0018356325603393917,0.042978271484375,None,None,None,None
cf2,3037.52,-0.9114467163085938,-0.9379776611328126,0.5724343872070312,-1.1824232339859009,0.03667907714847157,0.023147583007830888,-0.05206298828130135,0,0,0.027565612792968763,None,None,None,None
cf1,3037.54,0.005603667259216309,-0.010442279815673828,0.4567540588378906,1.6635991334915161,0.00952105522156629,0.010783863067636783,-0.0133834838867319,0.024303256481190784,0.0013422339578196883,0.04324594116210939,None,None,None,None
cf2,3037.54,-0.9111405639648438,-0.9377276000976563,0.5722771606445313,-1.1764146089553833,0.015307617187512768,0.012503051757823116,-0.007861328125004442,0,0,0.02772283935546871,None,None,None,None
cf1,3037.56,0.005809510231018066,-0.010262372016906739,0.45646166992187504,1.6635991334915161,0.010292148590097234,0.008995389938362627,-0.014619445800791971,0.024045523368324696,0.0009257103416134182,0.043538330078124965,None,None,None,None
cf2,3037.56,-0.9113242797851563,-0.9377553710937501,0.5730300903320312,-1.1764146089553833,-0.00918579101563402,-0.0013885498046885408,0.037646484375032194,0,0,0.02696990966796875,None,None,None,None
cf1,3037.58,0.006051088333129883,-0.010145253181457519,0.45614730834960937,1.6635991334915161,0.012078905105601811,0.005855941772466306,-0.01571807861329752,0.023733063689362566,0.0006534306796214756,0.04385269165039063,None,None,None,None
cf2,3037.58,-0.9111299438476562,-0.9376111450195312,0.5729913330078125,-1.1764146089553833,0.009716796875012212,0.0072113037109477005,-0.0019378662109399286,0,0,0.027008666992187513,None,None,None,None
cf1,3037.6,0.006229658603668213,-0.010085994720458985,0.45587149047851566,1.311943769454956,0.008928513526924657,0.002962923049929396,-0.013790893554697977,0.023497995420232516,0.0005146858158707111,0.04412850952148434,None,None,None,None
cf2,3037.6,-0.910922119140625,-0.9374664306640625,0.5729169311523438,-1.0298126935958862,0.010391235351568398,0.007235717773441594,-0.0037200927734382635,0,0,0.02708306884765621,None,None,None,None
cf1,3037.62,0.006433817386627198,-0.010083419799804687,0.455592529296875,1.311943769454956,0.010207939147958504,0.00012874603271499554,-0.013948059082046134,0.02322461966716207,0.0005133599237754788,0.04440747070312501,None,None,None,None
cf2,3037.62,-0.9107140502929688,-0.9373345947265626,0.5728312377929687,-1.0298126935958862,0.010403442382820895,0.006591796875005551,-0.004284667968755274,0,0,0.02716876220703124,None,None,None,None
cf1,3037.64,0.006628961563110352,-0.010111207962036134,0.45535711669921874,0.8359663486480713,0.009757208824166575,-0.001389408111573569,-0.011770629882823116,0.022959555967999652,0.0005871427019228773,0.044642883300781255,None,None,None,None
cf2,3037.64,-0.9104850463867188,-0.9372489013671875,0.572751220703125,-0.7601091861724854,0.011450195312511657,0.004284667968755274,-0.004000854492190206,0,0,0.02724877929687497,None,None,None,None
cf1,3037.66,0.006820954322814941,-0.010199294090270997,0.45511889648437504,0.8359663486480713,0.0095996379852382,-0.004404306411747159,-0.011911010742196313,0.022693504398145808,0.0008132126048574012,0.044881103515624965,None,None,None,None
cf2,3037.66,-0.9102789916992188,-0.9371539916992188,0.5726537475585938,-0.7601091861724854,0.010302734375009993,0.004745483398442704,-0.004873657226566177,0,0,0.027346252441406205,None,None,None,None
cf1,3037.68,0.007007554054260254,-0.010311656951904297,0.45493606567382816,0.8359663486480713,0.009329986572274143,-0.0056181430816701445,-0.009141540527352042,0.022429501719614085,0.001104593787907134,0.04506393432617184,None,None,None,None
cf2,3037.68,-0.9100918579101562,-0.937092041015625,0.572604248046875,-0.4019646644592285,0.009356689453135687,0.003097534179688541,-0.002474975585938818,0,0,0.027395751953124936,None,None,None,None
cf1,3037.7,0.007200323581695557,-0.010482527732849122,0.45475234985351565,0.27340689301490784,0.009638476371773898,-0.008543539047248994,-0.00918579101563402,0.02214747031206454,0.0015507501275792107,0.04524765014648435,None,None,None,None
cf2,3037.7,-0.9099186401367187,-0.9370286254882813,0.572493896484375,-0.4019646644592285,0.008660888671882078,0.003170776367192427,-0.005517578125007772,0,0,0.02750610351562499,None,None,None,None
cf1,3037.72,0.007401963233947754,-0.010655776023864746,0.4545702819824219,0.27340689301490784,0.010081982612619004,-0.008662414550789074,-0.009103393554696313,0.02184464690353133,0.0020121260160238324,0.04542971801757811,None,None,None,None
cf2,3037.72,-0.909765380859375,-0.9369974365234375,0.5724443359375,-0.4019646644592285,0.007662963867195757,0.0015594482421902062,-0.002478027343751943,0,0,0.027555664062499985,None,None,None,None
cf1,3037.74,0.007613483428955078,-0.010881590843200685,0.4544327392578125,-0.27742257714271545,0.010576009750375833,-0.011290740966807215,-0.006877136230474405,0.021511480348833042,0.002619500714003368,0.045567260742187476,None,None,None,None
cf2,3037.74,-0.9095934448242188,-0.936974609375,0.5723565063476562,-0.040582120418548584,0.008596801757817565,0.0011413574218754163,-0.004391479492192427,0,0,0.027643493652343754,None,None,None,None
cf1,3037.7599999999998,0.007816691398620606,-0.011121834754943848,0.45430117797851566,-0.27742257714271545,0.010160398483285638,-0.012012195587169074,-0.006578063964849267,0.021174889911581667,0.0032741024846303065,0.04569882202148434,None,None,None,None
cf2,3037.7599999999998,-0.9094067382812501,-0.9369793090820313,0.5722837524414063,-0.040582120418548584,0.009335327148443814,-0.00023498535156617762,-0.003637695312500555,0,0,0.0277162475585937,None,None,None,None
cf1,3037.7799999999997,0.008025975227355956,-0.011379384040832519,0.4542265930175781,-0.27742257714271545,0.010464191436777043,-0.012877464294445282,-0.0037292480468804124,0.020810707722833912,0.003985628355067868,0.04577340698242188,None,None,None,None
cf2,3037.7799999999997,-0.9092657470703125,-0.9369966430664063,0.5722355346679687,-0.040582120418548584,0.007049560546885408,-0.0008666992187497224,-0.0024108886718798572,0,0,0.027764465332031252,None,None,None,None
cf1,3037.7999999999997,0.00825357723236084,-0.011655048370361328,0.45414730834960937,-0.7903501987457275,0.01138010025025455,-0.013783216476452979,-0.003964233398441039,0.02039618854547228,0.004759677303124968,0.04585269165039063,None,None,None,None
cf2,3037.7999999999997,-0.9091459350585938,-0.9370267944335938,0.5722106323242188,0.29363077878952026,0.005990600585942149,-0.0015075683593781918,-0.0012451171874994448,0,0,0.027789367675781218,None,None,None,None
cf1,3037.8199999999997,0.008502939224243165,-0.011960678100585938,0.4540696105957031,-0.7903501987457275,0.012468099594127568,-0.015281486511244394,-0.003884887695316455,0.019916668817753738,0.005629572151401391,0.04593038940429689,None,None,None,None
cf2,3037.8199999999997,-0.9090069580078125,-0.9370587768554688,0.5721893310546875,0.29363077878952026,0.006948852539068953,-0.0015991210937497224,-0.0010650634765639571,0,0,0.027810668945312478,None,None,None,None
cf1,3037.8399999999997,0.008743778228759765,-0.012258288383483886,0.45399438476562504,-1.187024712562561,0.012041950225840965,-0.014880514144910952,-0.0037612915039071174,0.019427157875886156,0.00648625059336816,0.046005615234374964,None,None,None,None
cf2,3037.8399999999997,-0.908863525390625,-0.9370860595703125,0.5721492309570313,0.5929779410362244,0.007171630859382633,-0.001364135742189096,-0.0020050048828120144,0,0,0.02785076904296868,None,None,None,None
cf1,3037.8599999999997,0.008980257034301758,-0.012522004127502442,0.4539870300292969,-1.187024712562561,0.01182394027711038,-0.013185787200939806,-0.00036773681640656227,0.018932640242796922,0.0072609549974738214,0.04601296997070309,None,None,None,None
cf2,3037.8599999999997,-0.9082438354492187,-0.9368790893554688,0.5712069702148438,0.5929779410362244,0.030984497070341434,0.010348510742195758,-0.04711303710941816,0,0,0.028793029785156188,None,None,None,None
cf1,3037.8799999999997,0.009219706535339356,-0.012785348892211914,0.4539615173339844,-1.187024712562561,0.011972475051890778,-0.01316723823548555,-0.0012756347656279142,0.018409883959197442,0.008041723959486205,0.04603848266601562,None,None,None,None
cf2,3037.8799999999997,-0.9085159301757812,-0.9371317138671875,0.572004638671875,0.5929779410362244,-0.013604736328139017,-0.01263122558594659,0.03988342285159727,0,0,0.027995361328124968,None,None,None,None
cf1,3037.8999999999996,0.009489066123962402,-0.013052413940429688,0.4539409790039063,-1.4027537107467651,0.013467979431164569,-0.013353252410900839,-0.001026916503905452,0.017807536710331723,0.008850029232918891,0.046059020996093714,None,None,None,None
cf2,3037.8999999999996,-0.9079078369140625,-0.93696337890625,0.5711460571289063,0.8084288239479065,0.030404663085964352,0.008416748046882078,-0.04292907714847379,0,0,0.028853942871093663,None,None,None,None
cf1,3037.92,0.009780658721923829,-0.013324922561645507,0.45392178344726564,-1.4027537107467651,0.014579629897753115,-0.013625431060493562,-0.0009597778320115435,0.017132695790377774,0.009686515097431682,0.04607821655273436,None,None,None,None
cf2,3037.92,-0.9077600708007812,-0.937004638671875,0.5710935668945313,0.8084288239479065,0.007388305663902073,-0.0020629882812033705,-0.002624511718694489,0,0,0.0289064331054687,None,None,None,None
cf1,3037.94,0.010074462890625,-0.01358727741241455,0.4539202880859375,-1.4492967128753662,0.014690208435071912,-0.013117742538464086,-7.476806640767248e-05,0.016427809842939844,0.010499698954487916,0.046079711914062516,None,None,None,None
cf2,3037.94,-0.9076195678710938,-0.9370361938476562,0.5710857543945312,0.904794454574585,0.007025146484380412,-0.0015777587890634021,-0.00039062500000222047,0,0,0.028914245605468736,None,None,None,None
cf1,3037.96,0.010346010208129882,-0.013830719947814941,0.4539061279296875,-1.4492967128753662,0.013577365875256459,-0.012172126770030604,-0.0007080078125005551,0.0157485199974585,0.011251498213162224,0.046093872070312514,None,None,None,None
cf2,3037.96,-0.9074948120117188,-0.937056396484375,0.571104736328125,0.904794454574585,0.006237792968755274,-0.0010101318359388184,0.0009490966796874307,0,0,0.028895263671875004,None,None,None,None
cf1,3037.98,0.010609417915344239,-0.01407965087890625,0.4539050598144531,-1.4492967128753662,0.013170385360729816,-0.0124465465545768,-5.340576171857653e-05,0.015057590534204152,0.012005879956373006,0.046094940185546884,None,None,None,None
cf2,3037.98,-0.9078292236328125,-0.9373006591796875,0.5720264892578125,0.904794454574585,-0.016720581054700753,-0.012213134765637351,0.04608764648441927,0,0,0.027973510742187457,None,None,None,None
cf1,3038.0,0.010877093315124512,-0.014314298629760743,0.45387945556640624,-1.3395353555679321,0.013383769989025839,-0.011732387542735293,-0.0012802124023448256,0.014343287972750625,0.012720095733264521,0.04612054443359376,None,None,None,None
cf2,3038.0,-0.9072904052734375,-0.937117431640625,0.5712142944335937,0.9446860551834106,0.026940917968773036,0.009161376953134575,-0.04060974121097657,0,0,0.02878570556640625,None,None,None,None
cf1,3038.02,0.01116617202758789,-0.014531685829162599,0.4538687133789063,-1.3395353555679321,0.014453935623182052,-0.010869359970102665,-0.0005371093749988898,0.01357036662783462,0.013397517855603221,0.046131286621093726,None,None,None,None
cf2,3038.02,-0.9071287841796876,-0.9371284790039063,0.5711570434570312,0.9446860551834106,0.008081054687504996,-0.0005523681640645123,-0.0028625488281279142,0,0,0.028842956542968756,None,None,None,None
cf1,3038.04,0.01145603084564209,-0.014742831230163575,0.4538702392578125,-1.1023863554000854,0.014492940902723156,-0.010557270050058432,7.629394531145917e-05,0.012777109681420986,0.014049577620816697,0.0461297607421875,None,None,None,None
cf2,3038.04,-0.9074439086914062,-0.9373904418945312,0.5720572509765625,0.824047327041626,-0.0157562255859477,-0.01309814453126027,0.04501037597660282,0,0,0.02794274902343752,None,None,None,None
cf1,3038.06,0.011762659072875976,-0.014902853965759277,0.453927001953125,-1.1023863554000854,0.015331411361708243,-0.00800113677979236,0.0028381347656284694,0.011954897592996831,0.014587900797800493,0.04607299804687498,None,None,None,None
cf2,3038.06,-0.9073355102539062,-0.9374223632812501,0.5721077880859375,0.824047327041626,0.005419921875004441,-0.001596069335942149,0.0025268554687563837,0,0,0.027892211914062437,None,None,None,None
cf1,3038.08,0.01202905559539795,-0.015036596298217774,0.4539718933105469,-1.1023863554000854,0.013319826126110811,-0.006687116622930953,0.002244567871095103,0.011226160481909324,0.015034997571478475,0.04602810668945312,None,None,None,None
cf2,3038.08,-0.9072528076171875,-0.9374615478515625,0.5721912841796876,0.824047327041626,0.004135131835939929,-0.001959228515626249,0.004174804687504996,0,0,0.027808715820312413,None,None,None,None
cf1,3038.1,0.01232012176513672,-0.015156549453735351,0.453998291015625,-0.7497075200080872,0.014553308486951709,-0.005997657775884306,0.0013198852539071174,0.010428066849883857,0.015457995612749367,0.046001708984375,None,None,None,None
cf2,3038.1,-0.90710546875,-0.9374558715820313,0.5721912231445313,0.6288491487503052,0.007366943359383743,0.0002838134765650674,-3.0517578131245006e-06,0,0,0.027808776855468675,None,None,None,None
cf1,3038.12,0.01260990333557129,-0.01525448513031006,0.45400778198242187,-0.7497075200080872,0.014489078521741701,-0.004896783828739859,0.00047454833984371533,0.009628432057673702,0.015824189924327988,0.045992218017578135,None,None,None,None
cf2,3038.12,-0.9065568237304688,-0.9372589111328126,0.5713400268554688,0.6288491487503052,0.02743225097658616,0.009848022460943259,-0.04255981445316344,0,0,0.02865997314453117,None,None,None,None
cf1,3038.14,0.012916314125061036,-0.015327314376831056,0.4540437316894531,-0.3641515374183655,0.015320539474501241,-0.0036414623260531257,0.0017974853515639571,0.008781385588188455,0.016138028472057395,0.04595626831054689,None,None,None,None
cf2,3038.14,-0.9068660278320313,-0.937481689453125,0.5721646118164062,0.37156450748443604,-0.015460205078141238,-0.01113891601563402,0.04122924804690761,0,0,0.027835388183593768,None,None,None,None
cf1,3038.16,0.013197599411010742,-0.015407831192016603,0.4541124572753906,-0.3641515374183655,0.014064264297498082,-0.004025840759280999,0.003436279296878747,0.007980559900007003,0.01644156641606041,0.045887542724609376,None,None,None,None
cf2,3038.16,-0.90633984375,-0.9372594604492188,0.571339111328125,0.37156450748443604,0.026309204101589493,0.011111450195321452,-0.04127502441409893,0,0,0.028660888671874996,None,None,None,None
cf1,3038.18,0.013466492652893066,-0.015448083877563476,0.45412960815429687,-0.3641515374183655,0.013444662094128436,-0.0020126342773455195,0.0008575439453131245,0.007219870430488929,0.016649490566903232,0.04587039184570313,None,None,None,None
cf2,3038.18,-0.9061708984375,-0.9372263793945312,0.5712501831054687,0.37156450748443604,0.008447265625007772,0.0016540527343804124,-0.004446411132817565,0,0,0.028749816894531266,None,None,None,None
cf1,3038.2,0.013737086296081544,-0.01544550609588623,0.4541567077636719,0.017928896471858025,0.01352968215943619,0.00012888908386239902,0.001354980468752498,0.006459608144030341,0.016766548875872422,0.045843292236328104,None,None,None,None
cf2,3038.2,-0.906468994140625,-0.9374309692382813,0.5721221923828125,0.08957265317440033,-0.0149047851562636,-0.010229492187511657,0.043600463867227955,0,0,0.0278778076171875,None,None,None,None
cf1,3038.22,0.013998990058898927,-0.015430401802062989,0.45414688110351564,0.017928896471858025,0.013095188140881061,0.0007552146911627837,-0.0004913330078131245,0.005713907278373076,0.016846492997825153,0.04585311889648436,None,None,None,None
cf2,3038.22,-0.9063662109375,-0.9374260864257813,0.5722321166992188,0.08957265317440033,0.005139160156252498,0.000244140625,0.005496215820321451,0,0,0.02776788330078117,None,None,None,None
cf1,3038.24,0.014212891578674317,-0.01542061233520508,0.45414971923828124,0.3818243443965912,0.010695075988779232,0.0004894733428959252,0.00014190673827975815,0.00509303349882177,0.016908837372088485,0.045850280761718765,None,None,None,None
cf2,3038.24,-0.9062454833984375,-0.9374140014648438,0.572278076171875,-0.13648228347301483,0.006036376953133466,0.0006042480468765266,0.002297973632810904,0,0,0.027721923828124995,None,None,None,None
cf1,3038.2599999999998,0.014448034286499024,-0.01540036678314209,0.454197998046875,0.3818243443965912,0.011757135391246069,0.001012277603150391,0.002413940429690206,0.004403112601239612,0.016950986069946137,0.045802001953125004,None,None,None,None
cf2,3038.2599999999998,-0.9061101684570313,-0.9373860473632812,0.572311767578125,-0.13648228347301483,0.0067657470703147895,0.0013977050781279142,0.0016845703125005552,0,0,0.027688232421875014,None,None,None,None
cf1,3038.2799999999997,0.014658062934875489,-0.015363057136535645,0.45421002197265625,0.3818243443965912,0.010501432418832782,0.001865482330323933,0.000601196289063402,0.0037830320360518997,0.01694494238839768,0.04578997802734375,None,None,None,None
cf2,3038.2799999999997,-0.9059692993164062,-0.937359619140625,0.5723715209960938,-0.13648228347301483,0.00704345703125916,0.001321411132810904,0.0029876708984438146,0,0,0.027628479003906192,None,None,None,None
cf1,3038.2999999999997,0.014856703758239746,-0.015315587997436524,0.4542321472167969,0.6757925152778625,0.009932041168221878,0.002373456954958196,0.0011062622070328113,0.00319067786817911,0.01690925071308408,0.04576785278320311,None,None,None,None
cf2,3038.2999999999997,-0.9058344116210938,-0.937348388671875,0.57241748046875,-0.3361023962497711,0.0067443847656284694,0.0005615234375038857,0.002297973632810904,0,0,0.027582519531250016,None,None,None,None
cf1,3038.3199999999997,0.01504933261871338,-0.015253579139709473,0.4542835693359375,0.6757925152778625,0.009631443023690438,0.0031004428863553894,0.0025711059570328113,0.0026108291874450125,0.016837713814065014,0.0457164306640625,None,None,None,None
cf2,3038.3199999999997,-0.9056466674804687,-0.9373448486328125,0.5724368896484375,-0.3361023962497711,0.00938720703126138,0.00017700195312236321,0.0009704589843793021,0,0,0.027563110351562448,None,None,None,None
cf1,3038.3399999999997,0.0152156982421875,-0.015180750846862793,0.454328369140625,0.838795006275177,0.008318281173713625,0.0036414146423372957,0.002239990234378192,0.002105687637809766,0.01673390882770564,0.04567163085937498,None,None,None,None
cf2,3038.3399999999997,-0.9054801025390625,-0.9373324584960938,0.5724481201171875,-0.469393253326416,0.00832824707031812,0.000619506835936598,0.0005615234374983346,0,0,0.02755187988281249,None,None,None,None
cf1,3038.3599999999997,0.01537397575378418,-0.01511702060699463,0.45436666870117187,0.838795006275177,0.007913875579841198,0.003186511993411059,0.0019149780273442704,0.0016168694667984436,0.016639268467538444,0.04563333129882813,None,None,None,None
cf2,3038.3599999999997,-0.9052650756835938,-0.9373098754882813,0.5724649047851562,-0.469393253326416,0.010751342773444925,0.0011291503906284694,0.0008392333984371531,0,0,0.027535095214843763,None,None,None,None
cf1,3038.3799999999997,0.015535784721374513,-0.015015494346618653,0.454423095703125,0.838795006275177,0.008090448379523954,0.005076313018803471,0.0028213500976590603,0.0011135155340681155,0.01646813278846024,0.045576904296875,None,None,None,None
cf2,3038.3799999999997,-0.9050628662109376,-0.9372910156250001,0.5724769897460937,-0.469393253326416,0.010110473632822007,0.0009429931640611816,0.0006042480468765266,0,0,0.027523010253906244,None,None,None,None
cf1,3038.3999999999996,0.015669479370117187,-0.014919476509094238,0.4545027770996094,0.8872902393341064,0.006684732437139796,0.004800891876225103,0.003984069824223573,0.0006910696213764438,0.016297848729492092,0.0454972229003906,None,None,None,None
cf2,3038.3999999999996,-0.9048685913085938,-0.937290283203125,0.572479736328125,-0.5483713150024414,0.009713745117199088,3.662109375194289e-05,0.00013732910156284694,0,0,0.02752026367187499,None,None,None,None
cf1,3038.42,0.01579597759246826,-0.014819979667663574,0.4546018371582031,0.8872902393341064,0.006324911117415653,0.0049748420714246094,0.004953002929578143,0.0002848536832105756,0.016114540727123133,0.045398162841796874,None,None,None,None
cf2,3038.42,-0.9046784057617188,-0.9372584228515625,0.57249365234375,-0.5483713150024414,0.009509277343542389,0.0015930175780928036,0.0006958007812377876,0,0,0.02750634765624993,None,None,None,None
cf1,3038.44,0.015923113822937013,-0.014719347953796386,0.45470840454101563,0.815895140171051,0.006356811523443364,0.005031585693363972,0.005328369140630135,-0.000130531668605618,0.015922769847687857,0.04529159545898437,None,None,None,None
cf2,3038.44,-0.9044956665039062,-0.9372342529296875,0.5725015869140625,-0.5466997623443604,0.00913696289063513,0.001208496093747502,0.00039672851562291833,0,0,0.02749841308593748,None,None,None,None
cf1,3038.46,0.016017875671386718,-0.014612485885620117,0.4548763122558594,0.815895140171051,0.0047380924224895635,0.005343103408818331,0.008395385742195758,-0.0004460015209947942,0.01571349853869961,0.045123687744140606,None,None,None,None
cf2,3038.46,-0.9042601318359376,-0.9371734619140625,0.5724672241210937,-0.5466997623443604,0.011776733398443814,0.0030395507812558285,-0.0017181396484393734,0,0,0.027532775878906235,None,None,None,None
